{"type":"FeatureCollection","features":[{"type":"Feature","properties":{"name":"Bombo","pop_max":75000},"geometry":{"type":"Point","coordinates":[32.533,0.583]}},{"type":"Feature","properties":{"name":"Fort Portal","pop_max":42670},"geometry":{"type":"Point","coordinates":[30.275,0.671]}},{"type":"Feature","properties":{"name":"Potenza","pop_max":69060},"geometry":{"type":"Point","coordinates":[15.799,40.642]}},{"type":"Feature","properties":{"name":"Campobasso","pop_max":50762},"geometry":{"type":"Point","coordinates":[14.656,41.563]}},{"type":"Feature","properties":{"name":"Aosta","pop_max":34062},"geometry":{"type":"Point","coordinates":[7.315,45.737]}},{"type":"Feature","properties":{"name":"Mariehamn","pop_max":10682},"geometry":{"type":"Point","coordinates":[19.949,60.097]}},{"type":"Feature","properties":{"name":"Ramallah","pop_max":24599},"geometry":{"type":"Point","coordinates":[35.206,31.903]}},{"type":"Feature","properties":{"name":"Vatican City","pop_max":832},"geometry":{"type":"Point","coordinates":[12.453,41.903]}},{"type":"Feature","properties":{"name":"Poitier","pop_max":85960},"geometry":{"type":"Point","coordinates":[0.333,46.583]}},{"type":"Feature","properties":{"name":"Clermont-Ferrand","pop_max":233050},"geometry":{"type":"Point","coordinates":[3.08,45.78]}},{"type":"Feature","properties":{"name":"Besancon","pop_max":128426},"geometry":{"type":"Point","coordinates":[6.03,47.23]}},{"type":"Feature","properties":{"name":"Artigas Base","pop_max":60},"geometry":{"type":"Point","coordinates":[-58.864,-62.174]}},{"type":"Feature","properties":{"name":"Chipata","pop_max":85963},"geometry":{"type":"Point","coordinates":[32.64,-13.63]}},{"type":"Feature","properties":{"name":"Jinja","pop_max":301619},"geometry":{"type":"Point","coordinates":[33.2,0.44]}},{"type":"Feature","properties":{"name":"Arua","pop_max":250000},"geometry":{"type":"Point","coordinates":[30.9,3.02]}},{"type":"Feature","properties":{"name":"Mbale","pop_max":402368},"geometry":{"type":"Point","coordinates":[34.17,1.09]}},{"type":"Feature","properties":{"name":"Moroto","pop_max":371},"geometry":{"type":"Point","coordinates":[34.64,2.54]}},{"type":"Feature","properties":{"name":"Masaka","pop_max":65373},"geometry":{"type":"Point","coordinates":[31.73,-0.33]}},{"type":"Feature","properties":{"name":"Mbarara","pop_max":83700},"geometry":{"type":"Point","coordinates":[30.65,-0.6]}},{"type":"Feature","properties":{"name":"Otjiwarongo","pop_max":24815},"geometry":{"type":"Point","coordinates":[16.64,-20.46]}},{"type":"Feature","properties":{"name":"Bologna","pop_max":488172},"geometry":{"type":"Point","coordinates":[11.34,44.5]}},{"type":"Feature","properties":{"name":"Cagliari","pop_max":291511},"geometry":{"type":"Point","coordinates":[9.104,39.222]}},{"type":"Feature","properties":{"name":"Catanzaro","pop_max":95251},"geometry":{"type":"Point","coordinates":[16.6,38.9]}},{"type":"Feature","properties":{"name":"Bari","pop_max":500577},"geometry":{"type":"Point","coordinates":[16.873,41.114]}},{"type":"Feature","properties":{"name":"L'Aquila","pop_max":68503},"geometry":{"type":"Point","coordinates":[13.39,42.35]}},{"type":"Feature","properties":{"name":"Ancona","pop_max":100507},"geometry":{"type":"Point","coordinates":[13.5,43.6]}},{"type":"Feature","properties":{"name":"Perugia","pop_max":149125},"geometry":{"type":"Point","coordinates":[12.39,43.11]}},{"type":"Feature","properties":{"name":"Trieste","pop_max":216035},"geometry":{"type":"Point","coordinates":[13.8,45.65]}},{"type":"Feature","properties":{"name":"Trento","pop_max":107808},"geometry":{"type":"Point","coordinates":[11.12,46.08]}},{"type":"Feature","properties":{"name":"Fort-de-France","pop_max":253995},"geometry":{"type":"Point","coordinates":[-61.08,14.61]}},{"type":"Feature","properties":{"name":"Gifu","pop_max":412895},"geometry":{"type":"Point","coordinates":[136.763,35.423]}},{"type":"Feature","properties":{"name":"Saint-Laurent-du-Maroni","pop_max":24287},"geometry":{"type":"Point","coordinates":[-54.033,5.498]}},{"type":"Feature","properties":{"name":"Caen","pop_max":190099},"geometry":{"type":"Point","coordinates":[-0.35,49.184]}},{"type":"Feature","properties":{"name":"Nantes","pop_max":438537},"geometry":{"type":"Point","coordinates":[-1.59,47.21]}},{"type":"Feature","properties":{"name":"Ajaccio","pop_max":54364},"geometry":{"type":"Point","coordinates":[8.728,41.927]}},{"type":"Feature","properties":{"name":"Montpellier","pop_max":327254},"geometry":{"type":"Point","coordinates":[3.87,43.61]}},{"type":"Feature","properties":{"name":"Dijon","pop_max":169946},"geometry":{"type":"Point","coordinates":[5.03,47.33]}},{"type":"Feature","properties":{"name":"Orleans","pop_max":217301},"geometry":{"type":"Point","coordinates":[1.9,47.9]}},{"type":"Feature","properties":{"name":"Rouen","pop_max":532559},"geometry":{"type":"Point","coordinates":[1.08,49.43]}},{"type":"Feature","properties":{"name":"Reims","pop_max":196565},"geometry":{"type":"Point","coordinates":[4.03,49.25]}},{"type":"Feature","properties":{"name":"Amiens","pop_max":143086},"geometry":{"type":"Point","coordinates":[2.3,49.9]}},{"type":"Feature","properties":{"name":"Nancy","pop_max":268976},"geometry":{"type":"Point","coordinates":[6.2,48.684]}},{"type":"Feature","properties":{"name":"Basse-terre","pop_max":307},"geometry":{"type":"Point","coordinates":[-61.44,16.23]}},{"type":"Feature","properties":{"name":"Novi Sad","pop_max":225457},"geometry":{"type":"Point","coordinates":[19.85,45.25]}},{"type":"Feature","properties":{"name":"Banja Luka","pop_max":221738},"geometry":{"type":"Point","coordinates":[17.18,44.78]}},{"type":"Feature","properties":{"name":"George Town","pop_max":4268},"geometry":{"type":"Point","coordinates":[-81.33,19.28]}},{"type":"Feature","properties":{"name":"Grand Turk","pop_max":5801},"geometry":{"type":"Point","coordinates":[-71.136,21.466]}},{"type":"Feature","properties":{"name":"Douglas","pop_max":35854},"geometry":{"type":"Point","coordinates":[-4.48,54.15]}},{"type":"Feature","properties":{"name":"San Marino","pop_max":29579},"geometry":{"type":"Point","coordinates":[12.442,43.936]}},{"type":"Feature","properties":{"name":"Willemstad","pop_max":146813},"geometry":{"type":"Point","coordinates":[-69.02,12.2]}},{"type":"Feature","properties":{"name":"Oranjestad","pop_max":68775},"geometry":{"type":"Point","coordinates":[-70.029,12.53]}},{"type":"Feature","properties":{"name":"Vaduz","pop_max":36281},"geometry":{"type":"Point","coordinates":[9.517,47.134]}},{"type":"Feature","properties":{"name":"Capitan Arturo Prat Station","pop_max":41},"geometry":{"type":"Point","coordinates":[-59.683,-62.5]}},{"type":"Feature","properties":{"name":"Marambio Station","pop_max":150},"geometry":{"type":"Point","coordinates":[-56.65,-64.233]}},{"type":"Feature","properties":{"name":"Zucchelli Station","pop_max":80},"geometry":{"type":"Point","coordinates":[164.219,-74.619]}},{"type":"Feature","properties":{"name":"Rothera Station","pop_max":130},"geometry":{"type":"Point","coordinates":[-68.124,-67.565]}},{"type":"Feature","properties":{"name":"Palmer Station","pop_max":46},"geometry":{"type":"Point","coordinates":[-64.047,-64.762]}},{"type":"Feature","properties":{"name":"Base Presidente Montalva","pop_max":150},"geometry":{"type":"Point","coordinates":[-58.908,-62.183]}},{"type":"Feature","properties":{"name":"Carlini Station","pop_max":60},"geometry":{"type":"Point","coordinates":[-58.65,-62.224]}},{"type":"Feature","properties":{"name":"King Sejong Station","pop_max":90},"geometry":{"type":"Point","coordinates":[-58.772,-62.225]}},{"type":"Feature","properties":{"name":"Great Wall Station","pop_max":40},"geometry":{"type":"Point","coordinates":[-58.967,-62.216]}},{"type":"Feature","properties":{"name":"Escudero Base","pop_max":20},"geometry":{"type":"Point","coordinates":[-58.953,-62.195]}},{"type":"Feature","properties":{"name":"Elephant Island","pop_max":6},"geometry":{"type":"Point","coordinates":[-58,-62]}},{"type":"Feature","properties":{"name":"Scott Base","pop_max":85},"geometry":{"type":"Point","coordinates":[166.749,-77.847]}},{"type":"Feature","properties":{"name":"McMurdo Station","pop_max":1000},"geometry":{"type":"Point","coordinates":[166.869,-77.732]}},{"type":"Feature","properties":{"name":"Zhongshan Station","pop_max":60},"geometry":{"type":"Point","coordinates":[76.339,-69.434]}},{"type":"Feature","properties":{"name":"Vostok","pop_max":25},"geometry":{"type":"Point","coordinates":[106.8,-78.466]}},{"type":"Feature","properties":{"name":"Peter I Island","pop_max":1},"geometry":{"type":"Point","coordinates":[-90.597,-68.756]}},{"type":"Feature","properties":{"name":"Mirny Station","pop_max":169},"geometry":{"type":"Point","coordinates":[93.006,-66.576]}},{"type":"Feature","properties":{"name":"Mawson Station","pop_max":60},"geometry":{"type":"Point","coordinates":[62.875,-67.615]}},{"type":"Feature","properties":{"name":"Davis Station","pop_max":70},"geometry":{"type":"Point","coordinates":[78.141,-68.778]}},{"type":"Feature","properties":{"name":"Concordia Research Station","pop_max":30},"geometry":{"type":"Point","coordinates":[124.167,-74.666]}},{"type":"Feature","properties":{"name":"Casey Station","pop_max":200},"geometry":{"type":"Point","coordinates":[110.536,-66.286]}},{"type":"Feature","properties":{"name":"AmundsenScott South Pole Station","pop_max":200},"geometry":{"type":"Point","coordinates":[176.994,-90]}},{"type":"Feature","properties":{"name":"Wasa Station","pop_max":10},"geometry":{"type":"Point","coordinates":[-13.417,-73.05]}},{"type":"Feature","properties":{"name":"Troll Station","pop_max":44},"geometry":{"type":"Point","coordinates":[2.533,-72.016]}},{"type":"Feature","properties":{"name":"Svea Station","pop_max":10},"geometry":{"type":"Point","coordinates":[-11.217,-74.583]}},{"type":"Feature","properties":{"name":"Novolazarevskaya Station","pop_max":70},"geometry":{"type":"Point","coordinates":[-11.85,-71.301]}},{"type":"Feature","properties":{"name":"Neumayer Station III","pop_max":40},"geometry":{"type":"Point","coordinates":[-7.838,-70.89]}},{"type":"Feature","properties":{"name":"Maitri Station","pop_max":65},"geometry":{"type":"Point","coordinates":[11.73,-70.782]}},{"type":"Feature","properties":{"name":"Halley Station","pop_max":70},"geometry":{"type":"Point","coordinates":[-26.474,-76.092]}},{"type":"Feature","properties":{"name":"Belgrano Station","pop_max":100},"geometry":{"type":"Point","coordinates":[-34.617,-77.866]}},{"type":"Feature","properties":{"name":"Camp Sobral","pop_max":40},"geometry":{"type":"Point","coordinates":[-40.502,-81.179]}},{"type":"Feature","properties":{"name":"Aboa Station","pop_max":18},"geometry":{"type":"Point","coordinates":[-13.417,-75.05]}},{"type":"Feature","properties":{"name":"San Martín Station","pop_max":20},"geometry":{"type":"Point","coordinates":[-67.1,-68.116]}},{"type":"Feature","properties":{"name":"Gen. O'Higgins Station","pop_max":44},"geometry":{"type":"Point","coordinates":[-57.89,-63.328]}},{"type":"Feature","properties":{"name":"Esperanza Station","pop_max":250},"geometry":{"type":"Point","coordinates":[-57.026,-63.375]}},{"type":"Feature","properties":{"name":"Orcadas Station","pop_max":45},"geometry":{"type":"Point","coordinates":[-44.733,-60.733]}},{"type":"Feature","properties":{"name":"Signy Research Station","pop_max":8},"geometry":{"type":"Point","coordinates":[-45.601,-60.631]}},{"type":"Feature","properties":{"name":"Dumont d'Urville Station","pop_max":120},"geometry":{"type":"Point","coordinates":[139.964,-66.775]}},{"type":"Feature","properties":{"name":"Showa Station","pop_max":60},"geometry":{"type":"Point","coordinates":[39.746,-69.03]}},{"type":"Feature","properties":{"name":"Gibraltar","pop_max":187083},"geometry":{"type":"Point","coordinates":[-5.378,36.132]}},{"type":"Feature","properties":{"name":"Lobamba","pop_max":9782},"geometry":{"type":"Point","coordinates":[31.2,-26.467]}},{"type":"Feature","properties":{"name":"Edinburgh","pop_max":504966},"geometry":{"type":"Point","coordinates":[-3.219,55.948]}},{"type":"Feature","properties":{"name":"Cardiff","pop_max":861400},"geometry":{"type":"Point","coordinates":[-3.225,51.5]}},{"type":"Feature","properties":{"name":"Longyearbyen","pop_max":1232},"geometry":{"type":"Point","coordinates":[15.55,78.217]}},{"type":"Feature","properties":{"name":"Luxembourg","pop_max":107260},"geometry":{"type":"Point","coordinates":[6.13,49.612]}},{"type":"Feature","properties":{"name":"Turin","pop_max":1652000},"geometry":{"type":"Point","coordinates":[7.668,45.072]}},{"type":"Feature","properties":{"name":"Noumea","pop_max":93060},"geometry":{"type":"Point","coordinates":[166.444,-22.263]}},{"type":"Feature","properties":{"name":"Matsuyama","pop_max":533541},"geometry":{"type":"Point","coordinates":[132.766,33.846]}},{"type":"Feature","properties":{"name":"Rennes","pop_max":209375},"geometry":{"type":"Point","coordinates":[-1.67,48.1]}},{"type":"Feature","properties":{"name":"Toulouse","pop_max":847000},"geometry":{"type":"Point","coordinates":[1.448,43.622]}},{"type":"Feature","properties":{"name":"Limoges","pop_max":152199},"geometry":{"type":"Point","coordinates":[1.25,45.83]}},{"type":"Feature","properties":{"name":"Lille","pop_max":1044000},"geometry":{"type":"Point","coordinates":[3.078,50.652]}},{"type":"Feature","properties":{"name":"Strasbourg","pop_max":439972},"geometry":{"type":"Point","coordinates":[7.75,48.58]}},{"type":"Feature","properties":{"name":"Batumi","pop_max":155542},"geometry":{"type":"Point","coordinates":[41.63,41.6]}},{"type":"Feature","properties":{"name":"Funchal","pop_max":204767},"geometry":{"type":"Point","coordinates":[-16.88,32.65]}},{"type":"Feature","properties":{"name":"El Fasher","pop_max":252609},"geometry":{"type":"Point","coordinates":[25.35,13.63]}},{"type":"Feature","properties":{"name":"Keetmanshoop","pop_max":18039},"geometry":{"type":"Point","coordinates":[18.13,-26.574]}},{"type":"Feature","properties":{"name":"Swakopmund","pop_max":29491},"geometry":{"type":"Point","coordinates":[14.535,-22.669]}},{"type":"Feature","properties":{"name":"Genoa","pop_max":647497},"geometry":{"type":"Point","coordinates":[8.93,44.41]}},{"type":"Feature","properties":{"name":"Sukhumi","pop_max":81546},"geometry":{"type":"Point","coordinates":[41.02,43.02]}},{"type":"Feature","properties":{"name":"Palikir","pop_max":4645},"geometry":{"type":"Point","coordinates":[158.15,6.917]}},{"type":"Feature","properties":{"name":"Majuro","pop_max":25400},"geometry":{"type":"Point","coordinates":[171.38,7.103]}},{"type":"Feature","properties":{"name":"Agana","pop_max":122411},"geometry":{"type":"Point","coordinates":[144.75,13.47]}},{"type":"Feature","properties":{"name":"Funafuti","pop_max":4749},"geometry":{"type":"Point","coordinates":[179.217,-8.517]}},{"type":"Feature","properties":{"name":"Melekeok","pop_max":7026},"geometry":{"type":"Point","coordinates":[134.627,7.487]}},{"type":"Feature","properties":{"name":"Bir Lehlou","pop_max":500},"geometry":{"type":"Point","coordinates":[-9.653,26.119]}},{"type":"Feature","properties":{"name":"Monaco","pop_max":36371},"geometry":{"type":"Point","coordinates":[7.407,43.74]}},{"type":"Feature","properties":{"name":"Tarawa","pop_max":28802},"geometry":{"type":"Point","coordinates":[173.018,1.338]}},{"type":"Feature","properties":{"name":"Moroni","pop_max":128698},"geometry":{"type":"Point","coordinates":[43.24,-11.704]}},{"type":"Feature","properties":{"name":"Macau","pop_max":568700},"geometry":{"type":"Point","coordinates":[113.545,22.203]}},{"type":"Feature","properties":{"name":"Andorra","pop_max":53998},"geometry":{"type":"Point","coordinates":[1.516,42.5]}},{"type":"Feature","properties":{"name":"San Bernardino","pop_max":1745000},"geometry":{"type":"Point","coordinates":[-117.302,34.122]}},{"type":"Feature","properties":{"name":"Bridgeport","pop_max":1018000},"geometry":{"type":"Point","coordinates":[-73.202,41.182]}},{"type":"Feature","properties":{"name":"Rochester","pop_max":755000},"geometry":{"type":"Point","coordinates":[-77.622,43.172]}},{"type":"Feature","properties":{"name":"Manchester","pop_max":2230000},"geometry":{"type":"Point","coordinates":[-2.25,53.502]}},{"type":"Feature","properties":{"name":"Gujranwala","pop_max":1513000},"geometry":{"type":"Point","coordinates":[74.183,32.162]}},{"type":"Feature","properties":{"name":"Incheon","pop_max":2550000},"geometry":{"type":"Point","coordinates":[126.64,37.478]}},{"type":"Feature","properties":{"name":"Benin City","pop_max":1190000},"geometry":{"type":"Point","coordinates":[5.618,6.342]}},{"type":"Feature","properties":{"name":"Xiamen","pop_max":2519000},"geometry":{"type":"Point","coordinates":[118.078,24.452]}},{"type":"Feature","properties":{"name":"Nanchong","pop_max":2174000},"geometry":{"type":"Point","coordinates":[106.128,30.782]}},{"type":"Feature","properties":{"name":"Neijiang","pop_max":1466000},"geometry":{"type":"Point","coordinates":[105.048,29.582]}},{"type":"Feature","properties":{"name":"Nanyang","pop_max":1944000},"geometry":{"type":"Point","coordinates":[112.528,33.002]}},{"type":"Feature","properties":{"name":"Jinxi","pop_max":2426000},"geometry":{"type":"Point","coordinates":[120.828,40.752]}},{"type":"Feature","properties":{"name":"Yantai","pop_max":2116000},"geometry":{"type":"Point","coordinates":[121.398,37.532]}},{"type":"Feature","properties":{"name":"Zaozhuang","pop_max":2145000},"geometry":{"type":"Point","coordinates":[117.568,34.882]}},{"type":"Feature","properties":{"name":"Suzhou","pop_max":1650000},"geometry":{"type":"Point","coordinates":[120.618,31.302]}},{"type":"Feature","properties":{"name":"Xuzhou","pop_max":2091000},"geometry":{"type":"Point","coordinates":[117.178,34.282]}},{"type":"Feature","properties":{"name":"Wuxi","pop_max":1749000},"geometry":{"type":"Point","coordinates":[120.298,31.582]}},{"type":"Feature","properties":{"name":"Jilin","pop_max":2396000},"geometry":{"type":"Point","coordinates":[126.548,43.852]}},{"type":"Feature","properties":{"name":"Chandigarh","pop_max":979000},"geometry":{"type":"Point","coordinates":[76.778,30.722]}},{"type":"Feature","properties":{"name":"Jammu","pop_max":791000},"geometry":{"type":"Point","coordinates":[74.845,32.714]}},{"type":"Feature","properties":{"name":"Sholapur","pop_max":1057000},"geometry":{"type":"Point","coordinates":[75.898,17.672]}},{"type":"Feature","properties":{"name":"Aurangabad","pop_max":1113000},"geometry":{"type":"Point","coordinates":[75.318,19.898]}},{"type":"Feature","properties":{"name":"Nasik","pop_max":1473000},"geometry":{"type":"Point","coordinates":[73.778,20.002]}},{"type":"Feature","properties":{"name":"Dispur","pop_max":16140},"geometry":{"type":"Point","coordinates":[91.767,26.144]}},{"type":"Feature","properties":{"name":"Jullundur","pop_max":855000},"geometry":{"type":"Point","coordinates":[75.567,31.337]}},{"type":"Feature","properties":{"name":"Allahabad","pop_max":1201000},"geometry":{"type":"Point","coordinates":[81.838,25.457]}},{"type":"Feature","properties":{"name":"Moradabad","pop_max":787000},"geometry":{"type":"Point","coordinates":[78.755,28.844]}},{"type":"Feature","properties":{"name":"Ghaziabad","pop_max":1341000},"geometry":{"type":"Point","coordinates":[77.406,28.662]}},{"type":"Feature","properties":{"name":"Agra","pop_max":1592000},"geometry":{"type":"Point","coordinates":[78.013,27.172]}},{"type":"Feature","properties":{"name":"Aligarh","pop_max":805000},"geometry":{"type":"Point","coordinates":[78.06,27.894]}},{"type":"Feature","properties":{"name":"Meerut","pop_max":1398000},"geometry":{"type":"Point","coordinates":[77.698,29.002]}},{"type":"Feature","properties":{"name":"Dhanbad","pop_max":1246000},"geometry":{"type":"Point","coordinates":[86.418,23.802]}},{"type":"Feature","properties":{"name":"Gwalior","pop_max":978000},"geometry":{"type":"Point","coordinates":[78.178,26.232]}},{"type":"Feature","properties":{"name":"Vadodara","pop_max":1756000},"geometry":{"type":"Point","coordinates":[73.178,22.312]}},{"type":"Feature","properties":{"name":"Rajkot","pop_max":1260000},"geometry":{"type":"Point","coordinates":[70.798,22.312]}},{"type":"Feature","properties":{"name":"Durazno","pop_max":34037},"geometry":{"type":"Point","coordinates":[-56.51,-33.41]}},{"type":"Feature","properties":{"name":"International Falls","pop_max":15240},"geometry":{"type":"Point","coordinates":[-93.411,48.601]}},{"type":"Feature","properties":{"name":"St. Paul","pop_max":734854},"geometry":{"type":"Point","coordinates":[-93.085,44.944]}},{"type":"Feature","properties":{"name":"Billings","pop_max":104552},"geometry":{"type":"Point","coordinates":[-108.54,45.788]}},{"type":"Feature","properties":{"name":"Great Falls","pop_max":66558},"geometry":{"type":"Point","coordinates":[-111.3,47.5]}},{"type":"Feature","properties":{"name":"Missoula","pop_max":72856},"geometry":{"type":"Point","coordinates":[-113.993,46.872]}},{"type":"Feature","properties":{"name":"Minot","pop_max":39439},"geometry":{"type":"Point","coordinates":[-101.296,48.232]}},{"type":"Feature","properties":{"name":"Fargo","pop_max":162842},"geometry":{"type":"Point","coordinates":[-96.789,46.877]}},{"type":"Feature","properties":{"name":"Hilo","pop_max":52391},"geometry":{"type":"Point","coordinates":[-155.09,19.7]}},{"type":"Feature","properties":{"name":"Olympia","pop_max":156984},"geometry":{"type":"Point","coordinates":[-122.899,47.038]}},{"type":"Feature","properties":{"name":"Spokane","pop_max":347705},"geometry":{"type":"Point","coordinates":[-117.42,47.67]}},{"type":"Feature","properties":{"name":"Vancouver","pop_max":525802},"geometry":{"type":"Point","coordinates":[-122.64,45.63]}},{"type":"Feature","properties":{"name":"Flagstaff","pop_max":63993},"geometry":{"type":"Point","coordinates":[-111.651,35.198]}},{"type":"Feature","properties":{"name":"Tucson","pop_max":823000},"geometry":{"type":"Point","coordinates":[-110.892,32.207]}},{"type":"Feature","properties":{"name":"Santa Barbara","pop_max":181632},"geometry":{"type":"Point","coordinates":[-119.72,34.435]}},{"type":"Feature","properties":{"name":"Fresno","pop_max":616353},"geometry":{"type":"Point","coordinates":[-119.773,36.748]}},{"type":"Feature","properties":{"name":"Eureka","pop_max":42398},"geometry":{"type":"Point","coordinates":[-124.147,40.802]}},{"type":"Feature","properties":{"name":"Colorado Springs","pop_max":493654},"geometry":{"type":"Point","coordinates":[-104.792,38.863]}},{"type":"Feature","properties":{"name":"Reno","pop_max":328585},"geometry":{"type":"Point","coordinates":[-119.82,39.53]}},{"type":"Feature","properties":{"name":"Elko","pop_max":19252},"geometry":{"type":"Point","coordinates":[-115.762,40.833]}},{"type":"Feature","properties":{"name":"Albuquerque","pop_max":898642},"geometry":{"type":"Point","coordinates":[-106.641,35.105]}},{"type":"Feature","properties":{"name":"Salem","pop_max":229010},"geometry":{"type":"Point","coordinates":[-123.024,44.928]}},{"type":"Feature","properties":{"name":"Casper","pop_max":60791},"geometry":{"type":"Point","coordinates":[-106.312,42.867]}},{"type":"Feature","properties":{"name":"Topeka","pop_max":132091},"geometry":{"type":"Point","coordinates":[-95.67,39.05]}},{"type":"Feature","properties":{"name":"Kansas City","pop_max":1469000},"geometry":{"type":"Point","coordinates":[-94.606,39.109]}},{"type":"Feature","properties":{"name":"Tulsa","pop_max":946962},"geometry":{"type":"Point","coordinates":[-95.93,36.12]}},{"type":"Feature","properties":{"name":"Sioux Falls","pop_max":155724},"geometry":{"type":"Point","coordinates":[-96.73,43.55]}},{"type":"Feature","properties":{"name":"Shreveport","pop_max":248053},"geometry":{"type":"Point","coordinates":[-93.77,32.5]}},{"type":"Feature","properties":{"name":"Baton Rouge","pop_max":422072},"geometry":{"type":"Point","coordinates":[-91.14,30.458]}},{"type":"Feature","properties":{"name":"Ft. Worth","pop_max":1440454},"geometry":{"type":"Point","coordinates":[-97.34,32.74]}},{"type":"Feature","properties":{"name":"Corpus Christi","pop_max":277454},"geometry":{"type":"Point","coordinates":[-97.402,27.743]}},{"type":"Feature","properties":{"name":"Austin","pop_max":1161000},"geometry":{"type":"Point","coordinates":[-97.745,30.269]}},{"type":"Feature","properties":{"name":"Amarillo","pop_max":181766},"geometry":{"type":"Point","coordinates":[-101.83,35.23]}},{"type":"Feature","properties":{"name":"El Paso","pop_max":753000},"geometry":{"type":"Point","coordinates":[-106.512,31.782]}},{"type":"Feature","properties":{"name":"Laredo","pop_max":434768},"geometry":{"type":"Point","coordinates":[-99.507,27.506]}},{"type":"Feature","properties":{"name":"Merida","pop_max":345489},"geometry":{"type":"Point","coordinates":[-71.13,8.4]}},{"type":"Feature","properties":{"name":"Burlington","pop_max":93807},"geometry":{"type":"Point","coordinates":[-73.212,44.476]}},{"type":"Feature","properties":{"name":"Montgomery","pop_max":198325},"geometry":{"type":"Point","coordinates":[-86.279,32.362]}},{"type":"Feature","properties":{"name":"Tallahassee","pop_max":221222},"geometry":{"type":"Point","coordinates":[-84.28,30.45]}},{"type":"Feature","properties":{"name":"Orlando","pop_max":1350000},"geometry":{"type":"Point","coordinates":[-81.382,28.512]}},{"type":"Feature","properties":{"name":"Jacksonville","pop_max":988000},"geometry":{"type":"Point","coordinates":[-81.672,30.332]}},{"type":"Feature","properties":{"name":"Savannah","pop_max":180187},"geometry":{"type":"Point","coordinates":[-81.11,32.021]}},{"type":"Feature","properties":{"name":"Columbia","pop_max":398093},"geometry":{"type":"Point","coordinates":[-80.9,34.04]}},{"type":"Feature","properties":{"name":"Indianapolis","pop_max":1436000},"geometry":{"type":"Point","coordinates":[-86.172,39.752]}},{"type":"Feature","properties":{"name":"Wilmington","pop_max":161560},"geometry":{"type":"Point","coordinates":[-77.945,34.226]}},{"type":"Feature","properties":{"name":"Knoxville","pop_max":655400},"geometry":{"type":"Point","coordinates":[-83.92,35.97]}},{"type":"Feature","properties":{"name":"Richmond","pop_max":912000},"geometry":{"type":"Point","coordinates":[-77.452,37.552]}},{"type":"Feature","properties":{"name":"Charleston","pop_max":123799},"geometry":{"type":"Point","coordinates":[-81.633,38.35]}},{"type":"Feature","properties":{"name":"Baltimore","pop_max":2255000},"geometry":{"type":"Point","coordinates":[-76.622,39.302]}},{"type":"Feature","properties":{"name":"Syracuse","pop_max":662577},"geometry":{"type":"Point","coordinates":[-76.15,43.05]}},{"type":"Feature","properties":{"name":"Puerto Ayacucho","pop_max":52526},"geometry":{"type":"Point","coordinates":[-67.624,5.664]}},{"type":"Feature","properties":{"name":"Port-of-Spain","pop_max":294934},"geometry":{"type":"Point","coordinates":[-61.517,10.652]}},{"type":"Feature","properties":{"name":"Augusta","pop_max":24042},"geometry":{"type":"Point","coordinates":[-69.78,44.311]}},{"type":"Feature","properties":{"name":"Sault Ste. Marie","pop_max":83805},"geometry":{"type":"Point","coordinates":[-84.345,46.495]}},{"type":"Feature","properties":{"name":"Atakpame","pop_max":80683},"geometry":{"type":"Point","coordinates":[1.12,7.53]}},{"type":"Feature","properties":{"name":"Sousse","pop_max":327004},"geometry":{"type":"Point","coordinates":[10.625,35.83]}},{"type":"Feature","properties":{"name":"Taizz","pop_max":751000},"geometry":{"type":"Point","coordinates":[44.037,13.606]}},{"type":"Feature","properties":{"name":"Sitka","pop_max":8931},"geometry":{"type":"Point","coordinates":[-135.328,57.06]}},{"type":"Feature","properties":{"name":"Lvov","pop_max":803880},"geometry":{"type":"Point","coordinates":[24.03,49.835]}},{"type":"Feature","properties":{"name":"Odessa","pop_max":991000},"geometry":{"type":"Point","coordinates":[30.708,46.492]}},{"type":"Feature","properties":{"name":"Zhytomyr","pop_max":282192},"geometry":{"type":"Point","coordinates":[28.662,50.246]}},{"type":"Feature","properties":{"name":"Dnipropetrovsk","pop_max":1050000},"geometry":{"type":"Point","coordinates":[34.998,48.482]}},{"type":"Feature","properties":{"name":"Donetsk","pop_max":988000},"geometry":{"type":"Point","coordinates":[37.828,48.002]}},{"type":"Feature","properties":{"name":"Kharkiv","pop_max":1461000},"geometry":{"type":"Point","coordinates":[36.248,50.002]}},{"type":"Feature","properties":{"name":"Turkmenbasy","pop_max":68292},"geometry":{"type":"Point","coordinates":[52.97,40.023]}},{"type":"Feature","properties":{"name":"Bukhara","pop_max":319476},"geometry":{"type":"Point","coordinates":[64.43,39.78]}},{"type":"Feature","properties":{"name":"Nukus","pop_max":230006},"geometry":{"type":"Point","coordinates":[59.615,42.47]}},{"type":"Feature","properties":{"name":"Turkmenabat","pop_max":234817},"geometry":{"type":"Point","coordinates":[63.58,39.11]}},{"type":"Feature","properties":{"name":"Mary","pop_max":178708},"geometry":{"type":"Point","coordinates":[61.833,37.6]}},{"type":"Feature","properties":{"name":"Andijon","pop_max":650000},"geometry":{"type":"Point","coordinates":[72.34,40.79]}},{"type":"Feature","properties":{"name":"Haiphong","pop_max":1969000},"geometry":{"type":"Point","coordinates":[106.678,20.832]}},{"type":"Feature","properties":{"name":"Da Nang","pop_max":1000000},"geometry":{"type":"Point","coordinates":[108.25,16.06]}},{"type":"Feature","properties":{"name":"Kabwe","pop_max":188979},"geometry":{"type":"Point","coordinates":[28.45,-14.44]}},{"type":"Feature","properties":{"name":"Mufulira","pop_max":153624},"geometry":{"type":"Point","coordinates":[28.26,-12.55]}},{"type":"Feature","properties":{"name":"Kitwe","pop_max":404901},"geometry":{"type":"Point","coordinates":[28.22,-12.81]}},{"type":"Feature","properties":{"name":"Livingstone","pop_max":165480},"geometry":{"type":"Point","coordinates":[25.86,-17.86]}},{"type":"Feature","properties":{"name":"Chitungwiza","pop_max":340360},"geometry":{"type":"Point","coordinates":[31.1,-18]}},{"type":"Feature","properties":{"name":"Douala","pop_max":1906000},"geometry":{"type":"Point","coordinates":[9.708,4.062]}},{"type":"Feature","properties":{"name":"Birmingham","pop_max":2285000},"geometry":{"type":"Point","coordinates":[-1.922,52.477]}},{"type":"Feature","properties":{"name":"Belfast","pop_max":450406},"geometry":{"type":"Point","coordinates":[-5.96,54.6]}},{"type":"Feature","properties":{"name":"Izmir","pop_max":2587000},"geometry":{"type":"Point","coordinates":[27.15,38.438]}},{"type":"Feature","properties":{"name":"Bursa","pop_max":1492000},"geometry":{"type":"Point","coordinates":[29.068,40.202]}},{"type":"Feature","properties":{"name":"Samsun","pop_max":609339},"geometry":{"type":"Point","coordinates":[36.344,41.28]}},{"type":"Feature","properties":{"name":"Konya","pop_max":919000},"geometry":{"type":"Point","coordinates":[32.473,37.877]}},{"type":"Feature","properties":{"name":"Adana","pop_max":1293000},"geometry":{"type":"Point","coordinates":[35.318,36.997]}},{"type":"Feature","properties":{"name":"Gulu","pop_max":146858},"geometry":{"type":"Point","coordinates":[32.28,2.78]}},{"type":"Feature","properties":{"name":"Kigali","pop_max":860000},"geometry":{"type":"Point","coordinates":[30.059,-1.952]}},{"type":"Feature","properties":{"name":"Cottica","pop_max":29210},"geometry":{"type":"Point","coordinates":[-54.233,3.85]}},{"type":"Feature","properties":{"name":"Cordoba","pop_max":321376},"geometry":{"type":"Point","coordinates":[-4.77,37.88]}},{"type":"Feature","properties":{"name":"Maradi","pop_max":232555},"geometry":{"type":"Point","coordinates":[7.096,13.492]}},{"type":"Feature","properties":{"name":"Tahoua","pop_max":115956},"geometry":{"type":"Point","coordinates":[5.26,14.9]}},{"type":"Feature","properties":{"name":"Constanta","pop_max":303399},"geometry":{"type":"Point","coordinates":[28.61,44.203]}},{"type":"Feature","properties":{"name":"Luleå","pop_max":48638},"geometry":{"type":"Point","coordinates":[22.158,65.597]}},{"type":"Feature","properties":{"name":"Sundsvall","pop_max":73389},"geometry":{"type":"Point","coordinates":[17.317,62.4]}},{"type":"Feature","properties":{"name":"Iasi","pop_max":325914},"geometry":{"type":"Point","coordinates":[27.575,47.168]}},{"type":"Feature","properties":{"name":"Surat Thani","pop_max":157627},"geometry":{"type":"Point","coordinates":[99.34,9.15]}},{"type":"Feature","properties":{"name":"Chiang Mai","pop_max":397211},"geometry":{"type":"Point","coordinates":[98.98,18.8]}},{"type":"Feature","properties":{"name":"Nakhon Ratchasima","pop_max":334984},"geometry":{"type":"Point","coordinates":[102.1,15]}},{"type":"Feature","properties":{"name":"Mbabane","pop_max":90138},"geometry":{"type":"Point","coordinates":[31.133,-26.317]}},{"type":"Feature","properties":{"name":"Piura","pop_max":396932},"geometry":{"type":"Point","coordinates":[-80.63,-5.21]}},{"type":"Feature","properties":{"name":"Arequipa","pop_max":815000},"geometry":{"type":"Point","coordinates":[-71.532,-16.418]}},{"type":"Feature","properties":{"name":"Chimbote","pop_max":349846},"geometry":{"type":"Point","coordinates":[-78.57,-9.07]}},{"type":"Feature","properties":{"name":"Pucallpa","pop_max":310750},"geometry":{"type":"Point","coordinates":[-74.535,-8.369]}},{"type":"Feature","properties":{"name":"Iquitos","pop_max":458729},"geometry":{"type":"Point","coordinates":[-73.25,-3.75]}},{"type":"Feature","properties":{"name":"Huancayo","pop_max":412733},"geometry":{"type":"Point","coordinates":[-75.2,-12.08]}},{"type":"Feature","properties":{"name":"Ciudad del Este","pop_max":320872},"geometry":{"type":"Point","coordinates":[-54.616,-25.517]}},{"type":"Feature","properties":{"name":"Ponta Delgada","pop_max":61526},"geometry":{"type":"Point","coordinates":[-25.667,37.748]}},{"type":"Feature","properties":{"name":"Vigo","pop_max":378952},"geometry":{"type":"Point","coordinates":[-8.73,42.22]}},{"type":"Feature","properties":{"name":"Bilbao","pop_max":875552},"geometry":{"type":"Point","coordinates":[-2.93,43.25]}},{"type":"Feature","properties":{"name":"Kaolack","pop_max":277812},"geometry":{"type":"Point","coordinates":[-16.1,14.15]}},{"type":"Feature","properties":{"name":"Kaedi","pop_max":21656},"geometry":{"type":"Point","coordinates":[-13.5,16.15]}},{"type":"Feature","properties":{"name":"Geneina","pop_max":162981},"geometry":{"type":"Point","coordinates":[22.44,13.45]}},{"type":"Feature","properties":{"name":"Medina","pop_max":1010000},"geometry":{"type":"Point","coordinates":[39.578,24.502]}},{"type":"Feature","properties":{"name":"Tabuk","pop_max":547957},"geometry":{"type":"Point","coordinates":[36.555,28.384]}},{"type":"Feature","properties":{"name":"Juba","pop_max":111975},"geometry":{"type":"Point","coordinates":[31.58,4.83]}},{"type":"Feature","properties":{"name":"Malakal","pop_max":160765},"geometry":{"type":"Point","coordinates":[31.656,9.537]}},{"type":"Feature","properties":{"name":"Omdurman","pop_max":2395159},"geometry":{"type":"Point","coordinates":[32.48,15.617]}},{"type":"Feature","properties":{"name":"El Obeid","pop_max":393311},"geometry":{"type":"Point","coordinates":[30.217,13.183]}},{"type":"Feature","properties":{"name":"The Hague","pop_max":1406000},"geometry":{"type":"Point","coordinates":[4.27,52.08]}},{"type":"Feature","properties":{"name":"Kristiansand","pop_max":63814},"geometry":{"type":"Point","coordinates":[8,58.167]}},{"type":"Feature","properties":{"name":"Ljubljana","pop_max":314807},"geometry":{"type":"Point","coordinates":[14.515,46.055]}},{"type":"Feature","properties":{"name":"Bratislava","pop_max":423737},"geometry":{"type":"Point","coordinates":[17.117,48.15]}},{"type":"Feature","properties":{"name":"Hammerfest","pop_max":10000},"geometry":{"type":"Point","coordinates":[23.688,70.661]}},{"type":"Feature","properties":{"name":"Doha","pop_max":1450000},"geometry":{"type":"Point","coordinates":[51.533,25.287]}},{"type":"Feature","properties":{"name":"Quetta","pop_max":768000},"geometry":{"type":"Point","coordinates":[67.023,30.222]}},{"type":"Feature","properties":{"name":"Larkana","pop_max":364033},"geometry":{"type":"Point","coordinates":[68.207,27.562]}},{"type":"Feature","properties":{"name":"Springbok","pop_max":10438},"geometry":{"type":"Point","coordinates":[17.883,-29.667]}},{"type":"Feature","properties":{"name":"Upington","pop_max":71373},"geometry":{"type":"Point","coordinates":[21.23,-28.46]}},{"type":"Feature","properties":{"name":"Worcester","pop_max":127597},"geometry":{"type":"Point","coordinates":[19.44,-33.64]}},{"type":"Feature","properties":{"name":"George","pop_max":174582},"geometry":{"type":"Point","coordinates":[22.45,-33.95]}},{"type":"Feature","properties":{"name":"Tete","pop_max":129316},"geometry":{"type":"Point","coordinates":[33.58,-16.17]}},{"type":"Feature","properties":{"name":"Pemba","pop_max":110643},"geometry":{"type":"Point","coordinates":[40.532,-12.983]}},{"type":"Feature","properties":{"name":"Nampula","pop_max":388526},"geometry":{"type":"Point","coordinates":[39.293,-15.136]}},{"type":"Feature","properties":{"name":"Welkom","pop_max":431944},"geometry":{"type":"Point","coordinates":[26.73,-27.97]}},{"type":"Feature","properties":{"name":"Xai-Xai","pop_max":128805},"geometry":{"type":"Point","coordinates":[33.64,-25.04]}},{"type":"Feature","properties":{"name":"Goroka","pop_max":39699},"geometry":{"type":"Point","coordinates":[145.385,-6.083]}},{"type":"Feature","properties":{"name":"Mt. Hagen","pop_max":59064},"geometry":{"type":"Point","coordinates":[144.217,-5.863]}},{"type":"Feature","properties":{"name":"Rabaul","pop_max":8074},"geometry":{"type":"Point","coordinates":[152.143,-4.205]}},{"type":"Feature","properties":{"name":"Lae","pop_max":131052},"geometry":{"type":"Point","coordinates":[146.99,-6.733]}},{"type":"Feature","properties":{"name":"David","pop_max":110037},"geometry":{"type":"Point","coordinates":[-82.433,8.433]}},{"type":"Feature","properties":{"name":"Oujda","pop_max":409391},"geometry":{"type":"Point","coordinates":[-1.91,34.69]}},{"type":"Feature","properties":{"name":"Safi","pop_max":353476},"geometry":{"type":"Point","coordinates":[-9.24,32.32]}},{"type":"Feature","properties":{"name":"Podgorica","pop_max":145850},"geometry":{"type":"Point","coordinates":[19.266,42.466]}},{"type":"Feature","properties":{"name":"Quelimane","pop_max":188964},"geometry":{"type":"Point","coordinates":[36.89,-17.88]}},{"type":"Feature","properties":{"name":"East London","pop_max":338627},"geometry":{"type":"Point","coordinates":[27.87,-32.97]}},{"type":"Feature","properties":{"name":"Middelburg","pop_max":18164},"geometry":{"type":"Point","coordinates":[25.01,-31.5]}},{"type":"Feature","properties":{"name":"Naltchik","pop_max":307866},"geometry":{"type":"Point","coordinates":[43.618,43.498]}},{"type":"Feature","properties":{"name":"Stavropol","pop_max":363064},"geometry":{"type":"Point","coordinates":[41.98,45.05]}},{"type":"Feature","properties":{"name":"Ugolnye Kopi","pop_max":3367},"geometry":{"type":"Point","coordinates":[177.7,64.733]}},{"type":"Feature","properties":{"name":"Kaliningrad","pop_max":434954},"geometry":{"type":"Point","coordinates":[20.497,54.7]}},{"type":"Feature","properties":{"name":"Pskov","pop_max":201990},"geometry":{"type":"Point","coordinates":[28.33,57.83]}},{"type":"Feature","properties":{"name":"Bryansk","pop_max":427236},"geometry":{"type":"Point","coordinates":[34.43,53.26]}},{"type":"Feature","properties":{"name":"Smolensk","pop_max":320991},"geometry":{"type":"Point","coordinates":[32.047,54.783]}},{"type":"Feature","properties":{"name":"Petrozavodsk","pop_max":265025},"geometry":{"type":"Point","coordinates":[34.28,61.85]}},{"type":"Feature","properties":{"name":"Tver","pop_max":400212},"geometry":{"type":"Point","coordinates":[35.89,56.86]}},{"type":"Feature","properties":{"name":"Vologda","pop_max":294889},"geometry":{"type":"Point","coordinates":[39.92,59.21]}},{"type":"Feature","properties":{"name":"Yaroslavl","pop_max":606730},"geometry":{"type":"Point","coordinates":[39.87,57.62]}},{"type":"Feature","properties":{"name":"Rostov","pop_max":1052000},"geometry":{"type":"Point","coordinates":[39.711,47.237]}},{"type":"Feature","properties":{"name":"Sochi","pop_max":327608},"geometry":{"type":"Point","coordinates":[39.73,43.59]}},{"type":"Feature","properties":{"name":"Krasnodar","pop_max":649851},"geometry":{"type":"Point","coordinates":[39,45.02]}},{"type":"Feature","properties":{"name":"Penza","pop_max":512602},"geometry":{"type":"Point","coordinates":[45,53.18]}},{"type":"Feature","properties":{"name":"Ryazan","pop_max":520173},"geometry":{"type":"Point","coordinates":[39.72,54.62]}},{"type":"Feature","properties":{"name":"Voronezh","pop_max":844000},"geometry":{"type":"Point","coordinates":[39.268,51.732]}},{"type":"Feature","properties":{"name":"Magnitogorsk","pop_max":413351},"geometry":{"type":"Point","coordinates":[58.98,53.423]}},{"type":"Feature","properties":{"name":"Chelyabinsk","pop_max":1091000},"geometry":{"type":"Point","coordinates":[61.437,55.157]}},{"type":"Feature","properties":{"name":"Vorkuta","pop_max":80039},"geometry":{"type":"Point","coordinates":[64.01,67.5]}},{"type":"Feature","properties":{"name":"Kirov","pop_max":457437},"geometry":{"type":"Point","coordinates":[49.67,58.59]}},{"type":"Feature","properties":{"name":"Nizhny Tagil","pop_max":381116},"geometry":{"type":"Point","coordinates":[59.975,57.92]}},{"type":"Feature","properties":{"name":"Astrakhan","pop_max":502533},"geometry":{"type":"Point","coordinates":[48.055,46.349]}},{"type":"Feature","properties":{"name":"Orenburg","pop_max":550204},"geometry":{"type":"Point","coordinates":[55.11,51.78]}},{"type":"Feature","properties":{"name":"Saratov","pop_max":843000},"geometry":{"type":"Point","coordinates":[46.028,51.582]}},{"type":"Feature","properties":{"name":"Ulyanovsk","pop_max":640680},"geometry":{"type":"Point","coordinates":[48.41,54.33]}},{"type":"Feature","properties":{"name":"Omsk","pop_max":1135000},"geometry":{"type":"Point","coordinates":[73.398,54.992]}},{"type":"Feature","properties":{"name":"Tyumen","pop_max":519119},"geometry":{"type":"Point","coordinates":[65.53,57.14]}},{"type":"Feature","properties":{"name":"Novokuznetsk","pop_max":539616},"geometry":{"type":"Point","coordinates":[87.115,53.75]}},{"type":"Feature","properties":{"name":"Kemerovo","pop_max":477090},"geometry":{"type":"Point","coordinates":[86.09,55.34]}},{"type":"Feature","properties":{"name":"Groznyy","pop_max":226100},"geometry":{"type":"Point","coordinates":[45.699,43.319]}},{"type":"Feature","properties":{"name":"Kandy","pop_max":111701},"geometry":{"type":"Point","coordinates":[80.67,7.28]}},{"type":"Feature","properties":{"name":"Sri Jawewardenepura Kotte","pop_max":115826},"geometry":{"type":"Point","coordinates":[79.95,6.9]}},{"type":"Feature","properties":{"name":"Daejeon","pop_max":1468000},"geometry":{"type":"Point","coordinates":[127.423,36.337]}},{"type":"Feature","properties":{"name":"Gwangju","pop_max":1440000},"geometry":{"type":"Point","coordinates":[126.908,35.173]}},{"type":"Feature","properties":{"name":"Busan","pop_max":3480000},"geometry":{"type":"Point","coordinates":[129.008,35.097]}},{"type":"Feature","properties":{"name":"Zamboanga","pop_max":773000},"geometry":{"type":"Point","coordinates":[122.078,6.922]}},{"type":"Feature","properties":{"name":"Laoag","pop_max":207048},"geometry":{"type":"Point","coordinates":[120.594,18.199]}},{"type":"Feature","properties":{"name":"Baguio City","pop_max":447824},"geometry":{"type":"Point","coordinates":[120.57,16.43]}},{"type":"Feature","properties":{"name":"General Santos","pop_max":950530},"geometry":{"type":"Point","coordinates":[125.175,6.111]}},{"type":"Feature","properties":{"name":"Ust-Ulimsk","pop_max":100271},"geometry":{"type":"Point","coordinates":[102.633,57.99]}},{"type":"Feature","properties":{"name":"Angarsk","pop_max":243158},"geometry":{"type":"Point","coordinates":[103.92,52.56]}},{"type":"Feature","properties":{"name":"Abakan","pop_max":167289},"geometry":{"type":"Point","coordinates":[91.445,53.704]}},{"type":"Feature","properties":{"name":"Norilsk","pop_max":165873},"geometry":{"type":"Point","coordinates":[88.225,69.34]}},{"type":"Feature","properties":{"name":"Khatanga","pop_max":3205},"geometry":{"type":"Point","coordinates":[102.465,72.041]}},{"type":"Feature","properties":{"name":"Kyzyl","pop_max":108240},"geometry":{"type":"Point","coordinates":[94.383,51.707]}},{"type":"Feature","properties":{"name":"Ulan Ude","pop_max":360278},"geometry":{"type":"Point","coordinates":[107.625,51.825]}},{"type":"Feature","properties":{"name":"Blagoveshchensk","pop_max":221296},"geometry":{"type":"Point","coordinates":[127.533,50.267]}},{"type":"Feature","properties":{"name":"Bukachacha","pop_max":3372},"geometry":{"type":"Point","coordinates":[116.917,52.983]}},{"type":"Feature","properties":{"name":"Dalnegorsk","pop_max":8123},"geometry":{"type":"Point","coordinates":[135.517,44.537]}},{"type":"Feature","properties":{"name":"Ambarchik","pop_max":0},"geometry":{"type":"Point","coordinates":[162.334,69.651]}},{"type":"Feature","properties":{"name":"Batagay","pop_max":4266},"geometry":{"type":"Point","coordinates":[134.635,67.656]}},{"type":"Feature","properties":{"name":"Chokurdakh","pop_max":2506},"geometry":{"type":"Point","coordinates":[147.895,70.618]}},{"type":"Feature","properties":{"name":"Ust Nera","pop_max":9148},"geometry":{"type":"Point","coordinates":[143.2,64.567]}},{"type":"Feature","properties":{"name":"Lensk","pop_max":25589},"geometry":{"type":"Point","coordinates":[114.947,60.725]}},{"type":"Feature","properties":{"name":"Aldan","pop_max":24426},"geometry":{"type":"Point","coordinates":[125.389,58.603]}},{"type":"Feature","properties":{"name":"Mirnyy","pop_max":40308},"geometry":{"type":"Point","coordinates":[113.961,62.54]}},{"type":"Feature","properties":{"name":"Zhigansk","pop_max":3237},"geometry":{"type":"Point","coordinates":[123.371,66.77]}},{"type":"Feature","properties":{"name":"Okhotsk","pop_max":5570},"geometry":{"type":"Point","coordinates":[143.217,59.383]}},{"type":"Feature","properties":{"name":"Khabarovsk","pop_max":579000},"geometry":{"type":"Point","coordinates":[135.12,48.455]}},{"type":"Feature","properties":{"name":"Okha","pop_max":26560},"geometry":{"type":"Point","coordinates":[142.948,53.574]}},{"type":"Feature","properties":{"name":"Yuzhno Sakhalinsk","pop_max":176484},"geometry":{"type":"Point","coordinates":[142.74,46.965]}},{"type":"Feature","properties":{"name":"Mexicali","pop_max":885000},"geometry":{"type":"Point","coordinates":[-115.482,32.652]}},{"type":"Feature","properties":{"name":"La Paz","pop_max":189767},"geometry":{"type":"Point","coordinates":[-110.32,24.14]}},{"type":"Feature","properties":{"name":"Torreon","pop_max":1144000},"geometry":{"type":"Point","coordinates":[-103.422,25.572]}},{"type":"Feature","properties":{"name":"Culiacan","pop_max":809000},"geometry":{"type":"Point","coordinates":[-107.382,24.832]}},{"type":"Feature","properties":{"name":"Nogales","pop_max":178097},"geometry":{"type":"Point","coordinates":[-110.945,31.305]}},{"type":"Feature","properties":{"name":"Hermosillo","pop_max":595811},"geometry":{"type":"Point","coordinates":[-110.954,29.099]}},{"type":"Feature","properties":{"name":"Guaymas","pop_max":103449},"geometry":{"type":"Point","coordinates":[-110.89,27.93]}},{"type":"Feature","properties":{"name":"San Luis Potosi","pop_max":992000},"geometry":{"type":"Point","coordinates":[-101.002,22.172]}},{"type":"Feature","properties":{"name":"Matamoros","pop_max":538785},"geometry":{"type":"Point","coordinates":[-97.5,25.88]}},{"type":"Feature","properties":{"name":"Nuevo Laredo","pop_max":349550},"geometry":{"type":"Point","coordinates":[-99.55,27.5]}},{"type":"Feature","properties":{"name":"Colima","pop_max":223287},"geometry":{"type":"Point","coordinates":[-103.72,19.23]}},{"type":"Feature","properties":{"name":"Campeche","pop_max":205212},"geometry":{"type":"Point","coordinates":[-90.5,19.83]}},{"type":"Feature","properties":{"name":"Oaxaca","pop_max":530728},"geometry":{"type":"Point","coordinates":[-96.67,17.083]}},{"type":"Feature","properties":{"name":"Leon","pop_max":1488000},"geometry":{"type":"Point","coordinates":[-101.702,21.152]}},{"type":"Feature","properties":{"name":"Maiduguri","pop_max":896000},"geometry":{"type":"Point","coordinates":[13.158,11.852]}},{"type":"Feature","properties":{"name":"Port Harcourt","pop_max":1020000},"geometry":{"type":"Point","coordinates":[7.008,4.812]}},{"type":"Feature","properties":{"name":"Makurdi","pop_max":292645},"geometry":{"type":"Point","coordinates":[8.53,7.73]}},{"type":"Feature","properties":{"name":"Ibadan","pop_max":2628000},"geometry":{"type":"Point","coordinates":[3.928,7.382]}},{"type":"Feature","properties":{"name":"Ogbomosho","pop_max":951000},"geometry":{"type":"Point","coordinates":[4.238,8.132]}},{"type":"Feature","properties":{"name":"Warri","pop_max":830106},"geometry":{"type":"Point","coordinates":[5.76,5.52]}},{"type":"Feature","properties":{"name":"Kaduna","pop_max":1442000},"geometry":{"type":"Point","coordinates":[7.438,10.522]}},{"type":"Feature","properties":{"name":"Gdansk","pop_max":740000},"geometry":{"type":"Point","coordinates":[18.64,54.36]}},{"type":"Feature","properties":{"name":"Kraków","pop_max":756000},"geometry":{"type":"Point","coordinates":[19.958,50.062]}},{"type":"Feature","properties":{"name":"Dalandzadgad","pop_max":15093},"geometry":{"type":"Point","coordinates":[104.44,43.584]}},{"type":"Feature","properties":{"name":"Wonsan","pop_max":329207},"geometry":{"type":"Point","coordinates":[127.431,39.16]}},{"type":"Feature","properties":{"name":"Sinuiju","pop_max":288112},"geometry":{"type":"Point","coordinates":[124.421,40.086]}},{"type":"Feature","properties":{"name":"Dund-Us","pop_max":30500},"geometry":{"type":"Point","coordinates":[91.633,48.017]}},{"type":"Feature","properties":{"name":"Choybalsan","pop_max":33376},"geometry":{"type":"Point","coordinates":[114.506,48.067]}},{"type":"Feature","properties":{"name":"Lüderitz","pop_max":15137},"geometry":{"type":"Point","coordinates":[15.159,-26.648]}},{"type":"Feature","properties":{"name":"Walvis Bay","pop_max":52058},"geometry":{"type":"Point","coordinates":[14.505,-22.958]}},{"type":"Feature","properties":{"name":"Mwanza","pop_max":493944},"geometry":{"type":"Point","coordinates":[32.93,-2.52]}},{"type":"Feature","properties":{"name":"Morogoro","pop_max":250902},"geometry":{"type":"Point","coordinates":[37.66,-6.82]}},{"type":"Feature","properties":{"name":"Dodoma","pop_max":218269},"geometry":{"type":"Point","coordinates":[35.75,-6.183]}},{"type":"Feature","properties":{"name":"Arusha","pop_max":341136},"geometry":{"type":"Point","coordinates":[36.67,-3.36]}},{"type":"Feature","properties":{"name":"Napier","pop_max":56787},"geometry":{"type":"Point","coordinates":[176.915,-39.49]}},{"type":"Feature","properties":{"name":"Manukau","pop_max":362000},"geometry":{"type":"Point","coordinates":[174.885,-37]}},{"type":"Feature","properties":{"name":"Hamilton","pop_max":112145},"geometry":{"type":"Point","coordinates":[175.3,-37.77]}},{"type":"Feature","properties":{"name":"Blenheim","pop_max":26550},"geometry":{"type":"Point","coordinates":[173.959,-41.521]}},{"type":"Feature","properties":{"name":"Dunedin","pop_max":114347},"geometry":{"type":"Point","coordinates":[170.48,-45.88]}},{"type":"Feature","properties":{"name":"Bern","pop_max":275329},"geometry":{"type":"Point","coordinates":[7.467,46.917]}},{"type":"Feature","properties":{"name":"Malmö","pop_max":269349},"geometry":{"type":"Point","coordinates":[13.033,55.583]}},{"type":"Feature","properties":{"name":"Laayoune","pop_max":188084},"geometry":{"type":"Point","coordinates":[-13.2,27.15]}},{"type":"Feature","properties":{"name":"Ternate","pop_max":187521},"geometry":{"type":"Point","coordinates":[127.363,0.793]}},{"type":"Feature","properties":{"name":"Ambon","pop_max":355596},"geometry":{"type":"Point","coordinates":[128.2,-3.717]}},{"type":"Feature","properties":{"name":"Raba","pop_max":106101},"geometry":{"type":"Point","coordinates":[118.767,-8.45]}},{"type":"Feature","properties":{"name":"Jayapura","pop_max":169341},"geometry":{"type":"Point","coordinates":[140.7,-2.533]}},{"type":"Feature","properties":{"name":"Florence","pop_max":1500000},"geometry":{"type":"Point","coordinates":[11.25,43.78]}},{"type":"Feature","properties":{"name":"Catania","pop_max":674542},"geometry":{"type":"Point","coordinates":[15.08,37.5]}},{"type":"Feature","properties":{"name":"Pristina","pop_max":465186},"geometry":{"type":"Point","coordinates":[21.166,42.667]}},{"type":"Feature","properties":{"name":"Meru","pop_max":47226},"geometry":{"type":"Point","coordinates":[37.64,0.06]}},{"type":"Feature","properties":{"name":"Eldoret","pop_max":353381},"geometry":{"type":"Point","coordinates":[35.27,0.52]}},{"type":"Feature","properties":{"name":"Banda Aceh","pop_max":513698},"geometry":{"type":"Point","coordinates":[95.32,5.55]}},{"type":"Feature","properties":{"name":"George Town","pop_max":2500000},"geometry":{"type":"Point","coordinates":[100.329,5.414]}},{"type":"Feature","properties":{"name":"Zhangye","pop_max":230728},"geometry":{"type":"Point","coordinates":[100.45,38.93]}},{"type":"Feature","properties":{"name":"Wuwei","pop_max":493092},"geometry":{"type":"Point","coordinates":[102.641,37.928]}},{"type":"Feature","properties":{"name":"Dunhuang","pop_max":140094},"geometry":{"type":"Point","coordinates":[94.662,40.143]}},{"type":"Feature","properties":{"name":"Tianshui","pop_max":1225000},"geometry":{"type":"Point","coordinates":[105.918,34.602]}},{"type":"Feature","properties":{"name":"Dulan","pop_max":100},"geometry":{"type":"Point","coordinates":[98.267,36.167]}},{"type":"Feature","properties":{"name":"Golmud","pop_max":107092},"geometry":{"type":"Point","coordinates":[94.883,36.417]}},{"type":"Feature","properties":{"name":"Yulin","pop_max":1127000},"geometry":{"type":"Point","coordinates":[110.148,22.632]}},{"type":"Feature","properties":{"name":"Bose","pop_max":175282},"geometry":{"type":"Point","coordinates":[106.613,23.9]}},{"type":"Feature","properties":{"name":"Wuzhou","pop_max":442315},"geometry":{"type":"Point","coordinates":[111.32,23.48]}},{"type":"Feature","properties":{"name":"Lupanshui","pop_max":1221000},"geometry":{"type":"Point","coordinates":[104.831,26.596]}},{"type":"Feature","properties":{"name":"Quanzhou","pop_max":1463000},"geometry":{"type":"Point","coordinates":[118.578,24.902]}},{"type":"Feature","properties":{"name":"Hefei","pop_max":2035000},"geometry":{"type":"Point","coordinates":[117.278,31.852]}},{"type":"Feature","properties":{"name":"Suzhou","pop_max":1964000},"geometry":{"type":"Point","coordinates":[116.977,33.638]}},{"type":"Feature","properties":{"name":"Zhanjiang","pop_max":1590000},"geometry":{"type":"Point","coordinates":[110.378,21.202]}},{"type":"Feature","properties":{"name":"Shaoguan","pop_max":720266},"geometry":{"type":"Point","coordinates":[113.58,24.8]}},{"type":"Feature","properties":{"name":"Balikpapan","pop_max":445905},"geometry":{"type":"Point","coordinates":[116.83,-1.25]}},{"type":"Feature","properties":{"name":"Kuching","pop_max":570407},"geometry":{"type":"Point","coordinates":[110.33,1.53]}},{"type":"Feature","properties":{"name":"Antsiranana","pop_max":82937},"geometry":{"type":"Point","coordinates":[49.312,-12.277]}},{"type":"Feature","properties":{"name":"Fianarantsoa","pop_max":184184},"geometry":{"type":"Point","coordinates":[47.083,-21.433]}},{"type":"Feature","properties":{"name":"Mahajanga","pop_max":154657},"geometry":{"type":"Point","coordinates":[46.345,-15.67]}},{"type":"Feature","properties":{"name":"Toliara","pop_max":115319},"geometry":{"type":"Point","coordinates":[43.69,-23.357]}},{"type":"Feature","properties":{"name":"Surakarta","pop_max":555308},"geometry":{"type":"Point","coordinates":[110.825,-7.565]}},{"type":"Feature","properties":{"name":"Bandar Lampung","pop_max":865000},"geometry":{"type":"Point","coordinates":[105.268,-5.428]}},{"type":"Feature","properties":{"name":"Tanjungpandan","pop_max":62374},"geometry":{"type":"Point","coordinates":[107.65,-2.75]}},{"type":"Feature","properties":{"name":"Malang","pop_max":805000},"geometry":{"type":"Point","coordinates":[112.608,-7.978]}},{"type":"Feature","properties":{"name":"Kupang","pop_max":282396},"geometry":{"type":"Point","coordinates":[123.583,-10.179]}},{"type":"Feature","properties":{"name":"Parepare","pop_max":87776},"geometry":{"type":"Point","coordinates":[119.633,-4.017]}},{"type":"Feature","properties":{"name":"Cuenca","pop_max":286878},"geometry":{"type":"Point","coordinates":[-79,-2.9]}},{"type":"Feature","properties":{"name":"Santa Cruz","pop_max":11262},"geometry":{"type":"Point","coordinates":[-90.35,-0.533]}},{"type":"Feature","properties":{"name":"Puerto Limon","pop_max":85001},"geometry":{"type":"Point","coordinates":[-83.033,10]}},{"type":"Feature","properties":{"name":"Santiago de Cuba","pop_max":555865},"geometry":{"type":"Point","coordinates":[-75.821,20.025]}},{"type":"Feature","properties":{"name":"Santiago","pop_max":1550753},"geometry":{"type":"Point","coordinates":[-70.67,19.5]}},{"type":"Feature","properties":{"name":"Manizales","pop_max":375848},"geometry":{"type":"Point","coordinates":[-75.52,5.06]}},{"type":"Feature","properties":{"name":"Pasto","pop_max":382236},"geometry":{"type":"Point","coordinates":[-77.281,1.214]}},{"type":"Feature","properties":{"name":"Barranquilla","pop_max":1798000},"geometry":{"type":"Point","coordinates":[-74.802,10.962]}},{"type":"Feature","properties":{"name":"Roseau","pop_max":23336},"geometry":{"type":"Point","coordinates":[-61.387,15.301]}},{"type":"Feature","properties":{"name":"Mbandaka","pop_max":274996},"geometry":{"type":"Point","coordinates":[18.26,0.04]}},{"type":"Feature","properties":{"name":"Moundou","pop_max":156705},"geometry":{"type":"Point","coordinates":[16.09,8.55]}},{"type":"Feature","properties":{"name":"Suez","pop_max":508335},"geometry":{"type":"Point","coordinates":[32.55,30.005]}},{"type":"Feature","properties":{"name":"Bur Said","pop_max":623864},"geometry":{"type":"Point","coordinates":[32.29,31.26]}},{"type":"Feature","properties":{"name":"El Faiyum","pop_max":316772},"geometry":{"type":"Point","coordinates":[30.84,29.31]}},{"type":"Feature","properties":{"name":"Aswan","pop_max":313442},"geometry":{"type":"Point","coordinates":[32.899,24.088]}},{"type":"Feature","properties":{"name":"Asyut","pop_max":420585},"geometry":{"type":"Point","coordinates":[31.18,27.19]}},{"type":"Feature","properties":{"name":"Kisangani","pop_max":578470},"geometry":{"type":"Point","coordinates":[25.22,0.52]}},{"type":"Feature","properties":{"name":"Assab","pop_max":105496},"geometry":{"type":"Point","coordinates":[42.73,13.01]}},{"type":"Feature","properties":{"name":"Djibouti","pop_max":923000},"geometry":{"type":"Point","coordinates":[43.148,11.595]}},{"type":"Feature","properties":{"name":"Dresden","pop_max":617515},"geometry":{"type":"Point","coordinates":[13.75,51.05]}},{"type":"Feature","properties":{"name":"Xigaze","pop_max":80000},"geometry":{"type":"Point","coordinates":[88.883,29.25]}},{"type":"Feature","properties":{"name":"Shache","pop_max":373492},"geometry":{"type":"Point","coordinates":[77.25,38.426]}},{"type":"Feature","properties":{"name":"Yining","pop_max":403489},"geometry":{"type":"Point","coordinates":[81.35,43.9]}},{"type":"Feature","properties":{"name":"Altay","pop_max":142000},"geometry":{"type":"Point","coordinates":[88.117,47.867]}},{"type":"Feature","properties":{"name":"Putrajaya","pop_max":67964},"geometry":{"type":"Point","coordinates":[101.702,2.914]}},{"type":"Feature","properties":{"name":"Shizuishan","pop_max":136570},"geometry":{"type":"Point","coordinates":[106.769,39.233]}},{"type":"Feature","properties":{"name":"Yulin","pop_max":155960},"geometry":{"type":"Point","coordinates":[109.733,38.283]}},{"type":"Feature","properties":{"name":"Ankang","pop_max":1100000},"geometry":{"type":"Point","coordinates":[109.02,32.68]}},{"type":"Feature","properties":{"name":"Houma","pop_max":102400},"geometry":{"type":"Point","coordinates":[111.21,35.62]}},{"type":"Feature","properties":{"name":"Yueyang","pop_max":826000},"geometry":{"type":"Point","coordinates":[113.098,29.382]}},{"type":"Feature","properties":{"name":"Hengyang","pop_max":1016000},"geometry":{"type":"Point","coordinates":[112.588,26.882]}},{"type":"Feature","properties":{"name":"Mianyang","pop_max":1396000},"geometry":{"type":"Point","coordinates":[104.768,31.472]}},{"type":"Feature","properties":{"name":"Xichang","pop_max":379993},"geometry":{"type":"Point","coordinates":[102.3,27.88]}},{"type":"Feature","properties":{"name":"Baoshan","pop_max":1000000},"geometry":{"type":"Point","coordinates":[99.15,25.12]}},{"type":"Feature","properties":{"name":"Gejiu","pop_max":149105},"geometry":{"type":"Point","coordinates":[103.15,23.38]}},{"type":"Feature","properties":{"name":"Shijianzhuang","pop_max":2417000},"geometry":{"type":"Point","coordinates":[114.478,38.052]}},{"type":"Feature","properties":{"name":"Handan","pop_max":1631000},"geometry":{"type":"Point","coordinates":[114.478,36.582]}},{"type":"Feature","properties":{"name":"Anshan","pop_max":1639000},"geometry":{"type":"Point","coordinates":[122.938,41.117]}},{"type":"Feature","properties":{"name":"Dalian","pop_max":3167000},"geometry":{"type":"Point","coordinates":[121.628,38.925]}},{"type":"Feature","properties":{"name":"Qingdao","pop_max":2866000},"geometry":{"type":"Point","coordinates":[120.328,36.092]}},{"type":"Feature","properties":{"name":"Linyi","pop_max":2082000},"geometry":{"type":"Point","coordinates":[118.328,35.082]}},{"type":"Feature","properties":{"name":"Huaiyin","pop_max":1264000},"geometry":{"type":"Point","coordinates":[119.028,33.582]}},{"type":"Feature","properties":{"name":"Wenzhou","pop_max":2350000},"geometry":{"type":"Point","coordinates":[120.648,28.022]}},{"type":"Feature","properties":{"name":"Ningbo","pop_max":1923000},"geometry":{"type":"Point","coordinates":[121.548,29.882]}},{"type":"Feature","properties":{"name":"Fukuoka","pop_max":2792000},"geometry":{"type":"Point","coordinates":[130.408,33.597]}},{"type":"Feature","properties":{"name":"Miyazaki","pop_max":324384},"geometry":{"type":"Point","coordinates":[131.418,31.918]}},{"type":"Feature","properties":{"name":"Naha","pop_max":905238},"geometry":{"type":"Point","coordinates":[127.673,26.207]}},{"type":"Feature","properties":{"name":"Kochi","pop_max":335570},"geometry":{"type":"Point","coordinates":[133.538,33.562]}},{"type":"Feature","properties":{"name":"Gorontalo","pop_max":365497},"geometry":{"type":"Point","coordinates":[123.07,0.55]}},{"type":"Feature","properties":{"name":"Tongliao","pop_max":884000},"geometry":{"type":"Point","coordinates":[122.268,43.622]}},{"type":"Feature","properties":{"name":"Hohhot","pop_max":1726000},"geometry":{"type":"Point","coordinates":[111.658,40.822]}},{"type":"Feature","properties":{"name":"Chifeng","pop_max":1277000},"geometry":{"type":"Point","coordinates":[118.948,42.272]}},{"type":"Feature","properties":{"name":"Ulanhot","pop_max":241894},"geometry":{"type":"Point","coordinates":[122.08,46.08]}},{"type":"Feature","properties":{"name":"Hailar","pop_max":231171},"geometry":{"type":"Point","coordinates":[119.7,49.2]}},{"type":"Feature","properties":{"name":"Jiamusi","pop_max":1020000},"geometry":{"type":"Point","coordinates":[130.348,46.832]}},{"type":"Feature","properties":{"name":"Beian","pop_max":154936},"geometry":{"type":"Point","coordinates":[126.482,48.239]}},{"type":"Feature","properties":{"name":"Daqing","pop_max":1693000},"geometry":{"type":"Point","coordinates":[124.998,46.582]}},{"type":"Feature","properties":{"name":"Jixi","pop_max":965000},"geometry":{"type":"Point","coordinates":[130.968,45.302]}},{"type":"Feature","properties":{"name":"Nagoya","pop_max":3230000},"geometry":{"type":"Point","coordinates":[136.913,35.157]}},{"type":"Feature","properties":{"name":"Nagano","pop_max":594311},"geometry":{"type":"Point","coordinates":[138.17,36.65]}},{"type":"Feature","properties":{"name":"Kushiro","pop_max":198566},"geometry":{"type":"Point","coordinates":[144.375,42.975]}},{"type":"Feature","properties":{"name":"Hakodate","pop_max":302984},"geometry":{"type":"Point","coordinates":[140.74,41.795]}},{"type":"Feature","properties":{"name":"Kyoto","pop_max":1805000},"geometry":{"type":"Point","coordinates":[135.748,35.032]}},{"type":"Feature","properties":{"name":"Sendai","pop_max":2250000},"geometry":{"type":"Point","coordinates":[141.02,38.289]}},{"type":"Feature","properties":{"name":"Sakata","pop_max":100446},"geometry":{"type":"Point","coordinates":[139.85,38.92]}},{"type":"Feature","properties":{"name":"Bandundu","pop_max":118211},"geometry":{"type":"Point","coordinates":[17.38,-3.31]}},{"type":"Feature","properties":{"name":"Kananga","pop_max":765000},"geometry":{"type":"Point","coordinates":[22.398,-5.888]}},{"type":"Feature","properties":{"name":"Kasongo","pop_max":63000},"geometry":{"type":"Point","coordinates":[26.66,-4.45]}},{"type":"Feature","properties":{"name":"Mbuji-Mayi","pop_max":1295000},"geometry":{"type":"Point","coordinates":[23.598,-6.148]}},{"type":"Feature","properties":{"name":"Kalemie","pop_max":206257},"geometry":{"type":"Point","coordinates":[29.2,-5.933]}},{"type":"Feature","properties":{"name":"Butembo","pop_max":286403},"geometry":{"type":"Point","coordinates":[29.28,0.13]}},{"type":"Feature","properties":{"name":"Goma","pop_max":144124},"geometry":{"type":"Point","coordinates":[29.222,-1.679]}},{"type":"Feature","properties":{"name":"Mzuzu","pop_max":110201},"geometry":{"type":"Point","coordinates":[34.02,-11.46]}},{"type":"Feature","properties":{"name":"Blantyre","pop_max":584877},"geometry":{"type":"Point","coordinates":[34.99,-15.79]}},{"type":"Feature","properties":{"name":"Quetzaltenango","pop_max":575263},"geometry":{"type":"Point","coordinates":[-91.52,14.83]}},{"type":"Feature","properties":{"name":"Banjul","pop_max":43094},"geometry":{"type":"Point","coordinates":[-16.592,13.454]}},{"type":"Feature","properties":{"name":"Faridabad","pop_max":1394000},"geometry":{"type":"Point","coordinates":[77.315,28.435]}},{"type":"Feature","properties":{"name":"Srinagar","pop_max":1140000},"geometry":{"type":"Point","coordinates":[74.813,34.102]}},{"type":"Feature","properties":{"name":"Vijayawada","pop_max":1137000},"geometry":{"type":"Point","coordinates":[80.628,16.522]}},{"type":"Feature","properties":{"name":"Thiruvananthapuram","pop_max":954000},"geometry":{"type":"Point","coordinates":[76.948,8.502]}},{"type":"Feature","properties":{"name":"Kochi","pop_max":1519000},"geometry":{"type":"Point","coordinates":[76.222,10.017]}},{"type":"Feature","properties":{"name":"Cuttack","pop_max":580000},"geometry":{"type":"Point","coordinates":[85.89,20.47]}},{"type":"Feature","properties":{"name":"Hubli","pop_max":890000},"geometry":{"type":"Point","coordinates":[75.123,15.362]}},{"type":"Feature","properties":{"name":"Mangalore","pop_max":776632},"geometry":{"type":"Point","coordinates":[74.85,12.9]}},{"type":"Feature","properties":{"name":"Mysore","pop_max":887000},"geometry":{"type":"Point","coordinates":[76.658,12.312]}},{"type":"Feature","properties":{"name":"Gulbarga","pop_max":483615},"geometry":{"type":"Point","coordinates":[76.82,17.35]}},{"type":"Feature","properties":{"name":"Kolhapur","pop_max":750000},"geometry":{"type":"Point","coordinates":[74.22,16.7]}},{"type":"Feature","properties":{"name":"Nanded","pop_max":623708},"geometry":{"type":"Point","coordinates":[77.3,19.17]}},{"type":"Feature","properties":{"name":"Akola","pop_max":503502},"geometry":{"type":"Point","coordinates":[77.01,20.71]}},{"type":"Feature","properties":{"name":"Guwahati","pop_max":983000},"geometry":{"type":"Point","coordinates":[91.768,26.162]}},{"type":"Feature","properties":{"name":"Kayes","pop_max":62521},"geometry":{"type":"Point","coordinates":[13.28,-4.18]}},{"type":"Feature","properties":{"name":"Franceville","pop_max":42967},"geometry":{"type":"Point","coordinates":[13.583,-1.633]}},{"type":"Feature","properties":{"name":"Bordeaux","pop_max":803000},"geometry":{"type":"Point","coordinates":[-0.597,44.852]}},{"type":"Feature","properties":{"name":"Marseille","pop_max":1400000},"geometry":{"type":"Point","coordinates":[5.373,43.292]}},{"type":"Feature","properties":{"name":"Le Havre","pop_max":242124},"geometry":{"type":"Point","coordinates":[0.105,49.505]}},{"type":"Feature","properties":{"name":"Gao","pop_max":116967},"geometry":{"type":"Point","coordinates":[-0.05,16.267]}},{"type":"Feature","properties":{"name":"Coihaique","pop_max":45787},"geometry":{"type":"Point","coordinates":[-72.07,-45.57]}},{"type":"Feature","properties":{"name":"Arica","pop_max":185999},"geometry":{"type":"Point","coordinates":[-70.29,-18.5]}},{"type":"Feature","properties":{"name":"Copiapo","pop_max":129280},"geometry":{"type":"Point","coordinates":[-70.34,-27.36]}},{"type":"Feature","properties":{"name":"La Serena","pop_max":154521},"geometry":{"type":"Point","coordinates":[-71.25,-29.9]}},{"type":"Feature","properties":{"name":"Los Angeles","pop_max":145239},"geometry":{"type":"Point","coordinates":[-72.36,-37.46]}},{"type":"Feature","properties":{"name":"Narsarsuaq","pop_max":145},"geometry":{"type":"Point","coordinates":[-45.417,61.167]}},{"type":"Feature","properties":{"name":"Sisimiut","pop_max":5227},"geometry":{"type":"Point","coordinates":[-53.667,66.95]}},{"type":"Feature","properties":{"name":"Upernavik","pop_max":1129},"geometry":{"type":"Point","coordinates":[-56.142,72.709]}},{"type":"Feature","properties":{"name":"Qaanaaq","pop_max":616},"geometry":{"type":"Point","coordinates":[-69.332,77.483]}},{"type":"Feature","properties":{"name":"Nouadhibou","pop_max":86738},"geometry":{"type":"Point","coordinates":[-17.056,20.9]}},{"type":"Feature","properties":{"name":"Kayes","pop_max":77207},"geometry":{"type":"Point","coordinates":[-11.44,14.45]}},{"type":"Feature","properties":{"name":"Ayoun el Atrous","pop_max":1423},"geometry":{"type":"Point","coordinates":[-9.617,16.667]}},{"type":"Feature","properties":{"name":"Segou","pop_max":122952},"geometry":{"type":"Point","coordinates":[-6.26,13.44]}},{"type":"Feature","properties":{"name":"Skopje","pop_max":494087},"geometry":{"type":"Point","coordinates":[21.433,42]}},{"type":"Feature","properties":{"name":"Al Jawf","pop_max":24132},"geometry":{"type":"Point","coordinates":[23.29,24.2]}},{"type":"Feature","properties":{"name":"Tmassah","pop_max":500},"geometry":{"type":"Point","coordinates":[15.8,26.367]}},{"type":"Feature","properties":{"name":"Misratah","pop_max":386120},"geometry":{"type":"Point","coordinates":[15.1,32.38]}},{"type":"Feature","properties":{"name":"Zuwarah","pop_max":180310},"geometry":{"type":"Point","coordinates":[12.079,32.934]}},{"type":"Feature","properties":{"name":"Kirkuk","pop_max":601433},"geometry":{"type":"Point","coordinates":[44.392,35.472]}},{"type":"Feature","properties":{"name":"Mosul","pop_max":1316000},"geometry":{"type":"Point","coordinates":[43.143,36.347]}},{"type":"Feature","properties":{"name":"An Najaf","pop_max":665552},"geometry":{"type":"Point","coordinates":[44.335,32]}},{"type":"Feature","properties":{"name":"Bahir Dar","pop_max":206748},"geometry":{"type":"Point","coordinates":[37.383,11.6]}},{"type":"Feature","properties":{"name":"Mekele","pop_max":95856},"geometry":{"type":"Point","coordinates":[39.47,13.5]}},{"type":"Feature","properties":{"name":"Dire Dawa","pop_max":252279},"geometry":{"type":"Point","coordinates":[41.86,9.59]}},{"type":"Feature","properties":{"name":"Rovaniemi","pop_max":34781},"geometry":{"type":"Point","coordinates":[25.716,66.5]}},{"type":"Feature","properties":{"name":"Vaasa","pop_max":57014},"geometry":{"type":"Point","coordinates":[21.6,63.1]}},{"type":"Feature","properties":{"name":"Tampere","pop_max":259279},"geometry":{"type":"Point","coordinates":[23.75,61.5]}},{"type":"Feature","properties":{"name":"Aqtobe","pop_max":262457},"geometry":{"type":"Point","coordinates":[57.17,50.28]}},{"type":"Feature","properties":{"name":"Rudny","pop_max":124000},"geometry":{"type":"Point","coordinates":[63.13,52.953]}},{"type":"Feature","properties":{"name":"Qyzylorda","pop_max":300000},"geometry":{"type":"Point","coordinates":[65.465,44.8]}},{"type":"Feature","properties":{"name":"Atyrau","pop_max":182753},"geometry":{"type":"Point","coordinates":[51.92,47.113]}},{"type":"Feature","properties":{"name":"Ekibastuz","pop_max":127868},"geometry":{"type":"Point","coordinates":[75.32,51.73]}},{"type":"Feature","properties":{"name":"Pavlodar","pop_max":329002},"geometry":{"type":"Point","coordinates":[76.95,52.3]}},{"type":"Feature","properties":{"name":"Semey","pop_max":311353},"geometry":{"type":"Point","coordinates":[80.275,50.435]}},{"type":"Feature","properties":{"name":"Oskemen","pop_max":319067},"geometry":{"type":"Point","coordinates":[82.615,49.99]}},{"type":"Feature","properties":{"name":"Yazd","pop_max":477905},"geometry":{"type":"Point","coordinates":[54.37,31.92]}},{"type":"Feature","properties":{"name":"Ahvaz","pop_max":996000},"geometry":{"type":"Point","coordinates":[48.718,31.282]}},{"type":"Feature","properties":{"name":"Basra","pop_max":870000},"geometry":{"type":"Point","coordinates":[47.812,30.515]}},{"type":"Feature","properties":{"name":"Bandar-e-Abbas","pop_max":461499},"geometry":{"type":"Point","coordinates":[56.272,27.204]}},{"type":"Feature","properties":{"name":"Hamadan","pop_max":528256},"geometry":{"type":"Point","coordinates":[48.515,34.796]}},{"type":"Feature","properties":{"name":"Tabriz","pop_max":1413000},"geometry":{"type":"Point","coordinates":[46.299,38.088]}},{"type":"Feature","properties":{"name":"Ludhiana","pop_max":1649000},"geometry":{"type":"Point","coordinates":[75.87,30.93]}},{"type":"Feature","properties":{"name":"Kota","pop_max":827000},"geometry":{"type":"Point","coordinates":[75.833,25.182]}},{"type":"Feature","properties":{"name":"Jodhpur","pop_max":995000},"geometry":{"type":"Point","coordinates":[73.015,26.294]}},{"type":"Feature","properties":{"name":"Shymkent","pop_max":465392},"geometry":{"type":"Point","coordinates":[69.595,42.32]}},{"type":"Feature","properties":{"name":"Taraz","pop_max":358153},"geometry":{"type":"Point","coordinates":[71.365,42.9]}},{"type":"Feature","properties":{"name":"Lucknow","pop_max":2695000},"geometry":{"type":"Point","coordinates":[80.913,26.857]}},{"type":"Feature","properties":{"name":"Saharanpur","pop_max":484873},"geometry":{"type":"Point","coordinates":[77.55,29.97]}},{"type":"Feature","properties":{"name":"Ranchi","pop_max":1044000},"geometry":{"type":"Point","coordinates":[85.328,23.372]}},{"type":"Feature","properties":{"name":"Bhagalpur","pop_max":361548},"geometry":{"type":"Point","coordinates":[86.98,25.23]}},{"type":"Feature","properties":{"name":"Raipur","pop_max":875000},"geometry":{"type":"Point","coordinates":[81.633,21.237]}},{"type":"Feature","properties":{"name":"Jabalpur","pop_max":1285000},"geometry":{"type":"Point","coordinates":[79.953,23.177]}},{"type":"Feature","properties":{"name":"Indore","pop_max":2026000},"geometry":{"type":"Point","coordinates":[75.863,22.717]}},{"type":"Feature","properties":{"name":"Pondicherry","pop_max":227411},"geometry":{"type":"Point","coordinates":[79.83,11.935]}},{"type":"Feature","properties":{"name":"Salem","pop_max":873000},"geometry":{"type":"Point","coordinates":[78.178,11.672]}},{"type":"Feature","properties":{"name":"Tiruchirappalli","pop_max":951000},"geometry":{"type":"Point","coordinates":[78.688,10.812]}},{"type":"Feature","properties":{"name":"Pointe-Noire","pop_max":659084},"geometry":{"type":"Point","coordinates":[11.88,-4.77]}},{"type":"Feature","properties":{"name":"Kankan","pop_max":114009},"geometry":{"type":"Point","coordinates":[-9.31,10.39]}},{"type":"Feature","properties":{"name":"Nzerekore","pop_max":168121},"geometry":{"type":"Point","coordinates":[-8.83,7.76]}},{"type":"Feature","properties":{"name":"Bouake","pop_max":567481},"geometry":{"type":"Point","coordinates":[-5.03,7.69]}},{"type":"Feature","properties":{"name":"St.-Denis","pop_max":190047},"geometry":{"type":"Point","coordinates":[55.448,-20.879]}},{"type":"Feature","properties":{"name":"Rio Branco","pop_max":257642},"geometry":{"type":"Point","coordinates":[-67.8,-9.967]}},{"type":"Feature","properties":{"name":"São Luís","pop_max":1038000},"geometry":{"type":"Point","coordinates":[-44.268,-2.514]}},{"type":"Feature","properties":{"name":"Porto Velho","pop_max":306180},"geometry":{"type":"Point","coordinates":[-63.9,-8.75]}},{"type":"Feature","properties":{"name":"Alvorada","pop_max":10232},"geometry":{"type":"Point","coordinates":[-49.082,-12.47]}},{"type":"Feature","properties":{"name":"Corumba","pop_max":96520},"geometry":{"type":"Point","coordinates":[-57.65,-19.016]}},{"type":"Feature","properties":{"name":"Belo Horizonte","pop_max":5575000},"geometry":{"type":"Point","coordinates":[-43.917,-19.913]}},{"type":"Feature","properties":{"name":"Montes Claros","pop_max":332379},"geometry":{"type":"Point","coordinates":[-43.86,-16.72]}},{"type":"Feature","properties":{"name":"Uberlandia","pop_max":563536},"geometry":{"type":"Point","coordinates":[-48.28,-18.9]}},{"type":"Feature","properties":{"name":"Colider","pop_max":27139},"geometry":{"type":"Point","coordinates":[-55.451,-10.817]}},{"type":"Feature","properties":{"name":"Alta Floresta","pop_max":40466},"geometry":{"type":"Point","coordinates":[-55.91,-9.9]}},{"type":"Feature","properties":{"name":"Cuiaba","pop_max":806000},"geometry":{"type":"Point","coordinates":[-56.087,-15.568]}},{"type":"Feature","properties":{"name":"Pelotas","pop_max":320674},"geometry":{"type":"Point","coordinates":[-52.33,-31.75]}},{"type":"Feature","properties":{"name":"Caxias do Sul","pop_max":381270},"geometry":{"type":"Point","coordinates":[-51.17,-29.18]}},{"type":"Feature","properties":{"name":"Ponta Grossa","pop_max":292177},"geometry":{"type":"Point","coordinates":[-50.16,-25.09]}},{"type":"Feature","properties":{"name":"Teresina","pop_max":907000},"geometry":{"type":"Point","coordinates":[-42.782,-5.093]}},{"type":"Feature","properties":{"name":"Maceio","pop_max":1186000},"geometry":{"type":"Point","coordinates":[-35.732,-9.618]}},{"type":"Feature","properties":{"name":"Vitoria da Conquista","pop_max":308204},"geometry":{"type":"Point","coordinates":[-40.84,-14.85]}},{"type":"Feature","properties":{"name":"Barreiras","pop_max":158292},"geometry":{"type":"Point","coordinates":[-45,-12.14]}},{"type":"Feature","properties":{"name":"Vila Velha","pop_max":1209091},"geometry":{"type":"Point","coordinates":[-40.318,-20.368]}},{"type":"Feature","properties":{"name":"Natal","pop_max":1088000},"geometry":{"type":"Point","coordinates":[-35.242,-5.778]}},{"type":"Feature","properties":{"name":"Thompson","pop_max":13727},"geometry":{"type":"Point","coordinates":[-97.867,55.75]}},{"type":"Feature","properties":{"name":"Brandon","pop_max":28418},"geometry":{"type":"Point","coordinates":[-99.95,49.833]}},{"type":"Feature","properties":{"name":"Fort Smith","pop_max":518},"geometry":{"type":"Point","coordinates":[-111.883,60]}},{"type":"Feature","properties":{"name":"Fort McMurray","pop_max":21863},"geometry":{"type":"Point","coordinates":[-111.383,56.733]}},{"type":"Feature","properties":{"name":"Peace River","pop_max":5340},"geometry":{"type":"Point","coordinates":[-117.283,56.233]}},{"type":"Feature","properties":{"name":"Fort St. John","pop_max":18776},"geometry":{"type":"Point","coordinates":[-120.833,56.25]}},{"type":"Feature","properties":{"name":"Iqaluit","pop_max":6124},"geometry":{"type":"Point","coordinates":[-68.5,63.75]}},{"type":"Feature","properties":{"name":"Cambridge Bay","pop_max":1477},"geometry":{"type":"Point","coordinates":[-105.033,69.117]}},{"type":"Feature","properties":{"name":"Kugluktuk","pop_max":1302},"geometry":{"type":"Point","coordinates":[-115.125,67.799]}},{"type":"Feature","properties":{"name":"Chesterfield Inlet","pop_max":374},"geometry":{"type":"Point","coordinates":[-90.7,63.338]}},{"type":"Feature","properties":{"name":"Arviat","pop_max":1868},"geometry":{"type":"Point","coordinates":[-94.059,61.109]}},{"type":"Feature","properties":{"name":"Taloyoak","pop_max":774},"geometry":{"type":"Point","coordinates":[-93.533,69.533]}},{"type":"Feature","properties":{"name":"Igloolik","pop_max":1612},"geometry":{"type":"Point","coordinates":[-81.794,69.257]}},{"type":"Feature","properties":{"name":"Dawson City","pop_max":1319},"geometry":{"type":"Point","coordinates":[-139.417,64.067]}},{"type":"Feature","properties":{"name":"Timmins","pop_max":34974},"geometry":{"type":"Point","coordinates":[-81.333,48.467]}},{"type":"Feature","properties":{"name":"North Bay","pop_max":50170},"geometry":{"type":"Point","coordinates":[-79.45,46.3]}},{"type":"Feature","properties":{"name":"Kuujjuarapik","pop_max":1243},"geometry":{"type":"Point","coordinates":[-77.766,55.281]}},{"type":"Feature","properties":{"name":"Kuujjuaq","pop_max":1273},"geometry":{"type":"Point","coordinates":[-68.4,58.1]}},{"type":"Feature","properties":{"name":"Sydney","pop_max":37538},"geometry":{"type":"Point","coordinates":[-60.18,46.066]}},{"type":"Feature","properties":{"name":"Labrador City","pop_max":10313},"geometry":{"type":"Point","coordinates":[-66.916,52.941]}},{"type":"Feature","properties":{"name":"Ebolowa","pop_max":87875},"geometry":{"type":"Point","coordinates":[11.15,2.9]}},{"type":"Feature","properties":{"name":"Bambari","pop_max":62098},"geometry":{"type":"Point","coordinates":[20.667,5.762]}},{"type":"Feature","properties":{"name":"Venice","pop_max":270816},"geometry":{"type":"Point","coordinates":[12.335,45.439]}},{"type":"Feature","properties":{"name":"El Calafate","pop_max":8000},"geometry":{"type":"Point","coordinates":[-72.3,-50.333]}},{"type":"Feature","properties":{"name":"San Juan","pop_max":447048},"geometry":{"type":"Point","coordinates":[-68.52,-31.55]}},{"type":"Feature","properties":{"name":"Rawson","pop_max":26335},"geometry":{"type":"Point","coordinates":[-65.1,-43.3]}},{"type":"Feature","properties":{"name":"Neuquen","pop_max":242092},"geometry":{"type":"Point","coordinates":[-68.06,-38.95]}},{"type":"Feature","properties":{"name":"Trinidad","pop_max":84259},"geometry":{"type":"Point","coordinates":[-64.9,-14.833]}},{"type":"Feature","properties":{"name":"Santa Rosa","pop_max":111424},"geometry":{"type":"Point","coordinates":[-64.3,-36.62]}},{"type":"Feature","properties":{"name":"San Carlos de Bariloche","pop_max":95394},"geometry":{"type":"Point","coordinates":[-71.3,-41.15]}},{"type":"Feature","properties":{"name":"Salta","pop_max":512686},"geometry":{"type":"Point","coordinates":[-65.417,-24.783]}},{"type":"Feature","properties":{"name":"Tucumán","pop_max":830000},"geometry":{"type":"Point","coordinates":[-65.219,-26.814]}},{"type":"Feature","properties":{"name":"Formosa","pop_max":221383},"geometry":{"type":"Point","coordinates":[-58.183,-26.173]}},{"type":"Feature","properties":{"name":"Santa Fe","pop_max":489505},"geometry":{"type":"Point","coordinates":[-60.69,-31.624]}},{"type":"Feature","properties":{"name":"Rosario","pop_max":1203000},"geometry":{"type":"Point","coordinates":[-60.668,-32.949]}},{"type":"Feature","properties":{"name":"Campinas","pop_max":2791000},"geometry":{"type":"Point","coordinates":[-47.102,-22.898]}},{"type":"Feature","properties":{"name":"Sorocaba","pop_max":563281},"geometry":{"type":"Point","coordinates":[-47.47,-23.49]}},{"type":"Feature","properties":{"name":"Ribeirao Preto","pop_max":551267},"geometry":{"type":"Point","coordinates":[-47.83,-21.17]}},{"type":"Feature","properties":{"name":"Petrolina","pop_max":260985},"geometry":{"type":"Point","coordinates":[-40.51,-9.38]}},{"type":"Feature","properties":{"name":"Bamenda","pop_max":445299},"geometry":{"type":"Point","coordinates":[10.15,5.96]}},{"type":"Feature","properties":{"name":"Garoua","pop_max":436899},"geometry":{"type":"Point","coordinates":[13.39,9.3]}},{"type":"Feature","properties":{"name":"Herat","pop_max":481009},"geometry":{"type":"Point","coordinates":[62.17,34.33]}},{"type":"Feature","properties":{"name":"Mazar-e Sharif","pop_max":458151},"geometry":{"type":"Point","coordinates":[67.1,36.7]}},{"type":"Feature","properties":{"name":"Battambang","pop_max":154773},"geometry":{"type":"Point","coordinates":[103.2,13.1]}},{"type":"Feature","properties":{"name":"Siem Reap","pop_max":109398},"geometry":{"type":"Point","coordinates":[103.85,13.367]}},{"type":"Feature","properties":{"name":"Malanje","pop_max":125856},"geometry":{"type":"Point","coordinates":[16.34,-9.54]}},{"type":"Feature","properties":{"name":"Benguela","pop_max":151226},"geometry":{"type":"Point","coordinates":[13.407,-12.578]}},{"type":"Feature","properties":{"name":"Lubango","pop_max":125632},"geometry":{"type":"Point","coordinates":[13.49,-14.91]}},{"type":"Feature","properties":{"name":"Namibe","pop_max":132900},"geometry":{"type":"Point","coordinates":[12.16,-15.19]}},{"type":"Feature","properties":{"name":"Tarija","pop_max":159269},"geometry":{"type":"Point","coordinates":[-64.75,-21.517]}},{"type":"Feature","properties":{"name":"Bridgetown","pop_max":191152},"geometry":{"type":"Point","coordinates":[-59.617,13.102]}},{"type":"Feature","properties":{"name":"Annaba","pop_max":503524},"geometry":{"type":"Point","coordinates":[7.76,36.92]}},{"type":"Feature","properties":{"name":"Parakou","pop_max":188853},"geometry":{"type":"Point","coordinates":[2.62,9.34]}},{"type":"Feature","properties":{"name":"Porto-Novo","pop_max":300000},"geometry":{"type":"Point","coordinates":[2.617,6.483]}},{"type":"Feature","properties":{"name":"Constantine","pop_max":605179},"geometry":{"type":"Point","coordinates":[6.6,36.36]}},{"type":"Feature","properties":{"name":"Brest","pop_max":300715},"geometry":{"type":"Point","coordinates":[23.7,52.1]}},{"type":"Feature","properties":{"name":"Khulna","pop_max":1553000},"geometry":{"type":"Point","coordinates":[89.558,22.842]}},{"type":"Feature","properties":{"name":"Francistown","pop_max":89979},"geometry":{"type":"Point","coordinates":[27.5,-21.17]}},{"type":"Feature","properties":{"name":"Mahalapye","pop_max":50744},"geometry":{"type":"Point","coordinates":[26.82,-23.1]}},{"type":"Feature","properties":{"name":"Serowe","pop_max":48573},"geometry":{"type":"Point","coordinates":[26.71,-22.39]}},{"type":"Feature","properties":{"name":"Katherine","pop_max":10141},"geometry":{"type":"Point","coordinates":[132.267,-14.467]}},{"type":"Feature","properties":{"name":"Busselton","pop_max":10214},"geometry":{"type":"Point","coordinates":[115.349,-33.656]}},{"type":"Feature","properties":{"name":"Mandurah","pop_max":73356},"geometry":{"type":"Point","coordinates":[115.747,-32.523]}},{"type":"Feature","properties":{"name":"Broome","pop_max":13218},"geometry":{"type":"Point","coordinates":[122.231,-17.962]}},{"type":"Feature","properties":{"name":"Kalgoorlie","pop_max":36852},"geometry":{"type":"Point","coordinates":[121.46,-30.735]}},{"type":"Feature","properties":{"name":"Albany","pop_max":26445},"geometry":{"type":"Point","coordinates":[117.892,-35.017]}},{"type":"Feature","properties":{"name":"Port Hedland","pop_max":14288},"geometry":{"type":"Point","coordinates":[118.606,-20.31]}},{"type":"Feature","properties":{"name":"Karratha","pop_max":16796},"geometry":{"type":"Point","coordinates":[116.87,-20.73]}},{"type":"Feature","properties":{"name":"Geraldton","pop_max":27258},"geometry":{"type":"Point","coordinates":[114.6,-28.767]}},{"type":"Feature","properties":{"name":"Griffith","pop_max":15455},"geometry":{"type":"Point","coordinates":[146.04,-34.29]}},{"type":"Feature","properties":{"name":"Orange","pop_max":39329},"geometry":{"type":"Point","coordinates":[149.1,-33.28]}},{"type":"Feature","properties":{"name":"Dubbo","pop_max":31574},"geometry":{"type":"Point","coordinates":[148.597,-32.26]}},{"type":"Feature","properties":{"name":"Armidale","pop_max":22673},"geometry":{"type":"Point","coordinates":[151.667,-30.512]}},{"type":"Feature","properties":{"name":"Broken Hill","pop_max":17395},"geometry":{"type":"Point","coordinates":[141.433,-31.95]}},{"type":"Feature","properties":{"name":"Port Lincoln","pop_max":13630},"geometry":{"type":"Point","coordinates":[135.867,-34.733]}},{"type":"Feature","properties":{"name":"Whyalla","pop_max":22559},"geometry":{"type":"Point","coordinates":[137.561,-33.025]}},{"type":"Feature","properties":{"name":"Portland","pop_max":11808},"geometry":{"type":"Point","coordinates":[141.59,-38.34]}},{"type":"Feature","properties":{"name":"Bendigo","pop_max":81657},"geometry":{"type":"Point","coordinates":[144.28,-36.76]}},{"type":"Feature","properties":{"name":"Wangaratta","pop_max":14022},"geometry":{"type":"Point","coordinates":[146.3,-36.36]}},{"type":"Feature","properties":{"name":"Windorah","pop_max":158},"geometry":{"type":"Point","coordinates":[142.65,-25.433]}},{"type":"Feature","properties":{"name":"Mount Isa","pop_max":33200},"geometry":{"type":"Point","coordinates":[139.49,-20.724]}},{"type":"Feature","properties":{"name":"Rockhampton","pop_max":65850},"geometry":{"type":"Point","coordinates":[150.52,-23.364]}},{"type":"Feature","properties":{"name":"Cairns","pop_max":154225},"geometry":{"type":"Point","coordinates":[145.763,-16.888]}},{"type":"Feature","properties":{"name":"Gold Coast","pop_max":527660},"geometry":{"type":"Point","coordinates":[153.448,-28.082]}},{"type":"Feature","properties":{"name":"Devonport","pop_max":19317},"geometry":{"type":"Point","coordinates":[146.331,-41.193]}},{"type":"Feature","properties":{"name":"Bobo Dioulasso","pop_max":360106},"geometry":{"type":"Point","coordinates":[-4.29,11.18]}},{"type":"Feature","properties":{"name":"Rajshahi","pop_max":810000},"geometry":{"type":"Point","coordinates":[88.603,24.377]}},{"type":"Feature","properties":{"name":"Mandalay","pop_max":1300000},"geometry":{"type":"Point","coordinates":[96.083,21.972]}},{"type":"Feature","properties":{"name":"Sittwe","pop_max":179032},"geometry":{"type":"Point","coordinates":[92.88,20.14]}},{"type":"Feature","properties":{"name":"Bujumbura","pop_max":331700},"geometry":{"type":"Point","coordinates":[29.36,-3.376]}},{"type":"Feature","properties":{"name":"Pago Pago","pop_max":12576},"geometry":{"type":"Point","coordinates":[-170.707,-14.277]}},{"type":"Feature","properties":{"name":"Kingstown","pop_max":49485},"geometry":{"type":"Point","coordinates":[-61.212,13.148]}},{"type":"Feature","properties":{"name":"Castries","pop_max":37963},"geometry":{"type":"Point","coordinates":[-61,14.002]}},{"type":"Feature","properties":{"name":"Basseterre","pop_max":21887},"geometry":{"type":"Point","coordinates":[-62.717,17.302]}},{"type":"Feature","properties":{"name":"Las Palmas","pop_max":378495},"geometry":{"type":"Point","coordinates":[-15.43,28.1]}},{"type":"Feature","properties":{"name":"Berbera","pop_max":242344},"geometry":{"type":"Point","coordinates":[45.016,10.436]}},{"type":"Feature","properties":{"name":"Port Louis","pop_max":595491},"geometry":{"type":"Point","coordinates":[57.5,-20.167]}},{"type":"Feature","properties":{"name":"Gaza","pop_max":505700},"geometry":{"type":"Point","coordinates":[34.445,31.53]}},{"type":"Feature","properties":{"name":"Saint George's","pop_max":33734},"geometry":{"type":"Point","coordinates":[-61.742,12.053]}},{"type":"Feature","properties":{"name":"Papeete","pop_max":131695},"geometry":{"type":"Point","coordinates":[-149.567,-17.533]}},{"type":"Feature","properties":{"name":"Manama","pop_max":563920},"geometry":{"type":"Point","coordinates":[50.583,26.236]}},{"type":"Feature","properties":{"name":"Freeport","pop_max":25383},"geometry":{"type":"Point","coordinates":[-78.7,26.533]}},{"type":"Feature","properties":{"name":"Saint John's","pop_max":35499},"geometry":{"type":"Point","coordinates":[-61.85,17.118]}},{"type":"Feature","properties":{"name":"Taichung","pop_max":2629323},"geometry":{"type":"Point","coordinates":[120.682,24.152]}},{"type":"Feature","properties":{"name":"Kozhikode","pop_max":953000},"geometry":{"type":"Point","coordinates":[75.768,11.252]}},{"type":"Feature","properties":{"name":"Bhubaneshwar","pop_max":844000},"geometry":{"type":"Point","coordinates":[85.825,20.272]}},{"type":"Feature","properties":{"name":"Jamshedpur","pop_max":1300000},"geometry":{"type":"Point","coordinates":[86.196,22.789]}},{"type":"Feature","properties":{"name":"Montevideo","pop_max":1513000},"geometry":{"type":"Point","coordinates":[-56.173,-34.856]}},{"type":"Feature","properties":{"name":"Helena","pop_max":38725},"geometry":{"type":"Point","coordinates":[-112.035,46.593]}},{"type":"Feature","properties":{"name":"Bismarck","pop_max":63871},"geometry":{"type":"Point","coordinates":[-100.783,46.808]}},{"type":"Feature","properties":{"name":"Boise","pop_max":338071},"geometry":{"type":"Point","coordinates":[-116.227,43.609]}},{"type":"Feature","properties":{"name":"San Jose","pop_max":1668000},"geometry":{"type":"Point","coordinates":[-121.852,37.302]}},{"type":"Feature","properties":{"name":"Sacramento","pop_max":1604000},"geometry":{"type":"Point","coordinates":[-121.472,38.577]}},{"type":"Feature","properties":{"name":"Las Vegas","pop_max":1823000},"geometry":{"type":"Point","coordinates":[-115.222,36.212]}},{"type":"Feature","properties":{"name":"Santa Fe","pop_max":92681},"geometry":{"type":"Point","coordinates":[-105.937,35.687]}},{"type":"Feature","properties":{"name":"Portland","pop_max":1875000},"geometry":{"type":"Point","coordinates":[-122.682,45.522]}},{"type":"Feature","properties":{"name":"Salt Lake City","pop_max":966000},"geometry":{"type":"Point","coordinates":[-111.932,40.777]}},{"type":"Feature","properties":{"name":"Cheyenne","pop_max":72927},"geometry":{"type":"Point","coordinates":[-104.82,41.14]}},{"type":"Feature","properties":{"name":"Des Moines","pop_max":380655},"geometry":{"type":"Point","coordinates":[-93.62,41.58]}},{"type":"Feature","properties":{"name":"Omaha","pop_max":877110},"geometry":{"type":"Point","coordinates":[-96.01,41.24]}},{"type":"Feature","properties":{"name":"Oklahoma City","pop_max":788000},"geometry":{"type":"Point","coordinates":[-97.521,35.472]}},{"type":"Feature","properties":{"name":"Pierre","pop_max":13879},"geometry":{"type":"Point","coordinates":[-100.351,44.368]}},{"type":"Feature","properties":{"name":"San Antonio","pop_max":1473000},"geometry":{"type":"Point","coordinates":[-98.509,29.489]}},{"type":"Feature","properties":{"name":"San Cristobal","pop_max":438798},"geometry":{"type":"Point","coordinates":[-72.25,7.77]}},{"type":"Feature","properties":{"name":"Valencia","pop_max":1770000},"geometry":{"type":"Point","coordinates":[-67.982,10.232]}},{"type":"Feature","properties":{"name":"Jackson","pop_max":250902},"geometry":{"type":"Point","coordinates":[-90.185,32.299]}},{"type":"Feature","properties":{"name":"Raleigh","pop_max":1163515},"geometry":{"type":"Point","coordinates":[-78.645,35.819]}},{"type":"Feature","properties":{"name":"Cleveland","pop_max":1890000},"geometry":{"type":"Point","coordinates":[-81.697,41.472]}},{"type":"Feature","properties":{"name":"Cincinnati","pop_max":1636000},"geometry":{"type":"Point","coordinates":[-84.459,39.164]}},{"type":"Feature","properties":{"name":"Nashville","pop_max":877000},"geometry":{"type":"Point","coordinates":[-86.782,36.172]}},{"type":"Feature","properties":{"name":"Memphis","pop_max":1081000},"geometry":{"type":"Point","coordinates":[-90.002,35.122]}},{"type":"Feature","properties":{"name":"Norfolk","pop_max":1047869},"geometry":{"type":"Point","coordinates":[-76.28,36.85]}},{"type":"Feature","properties":{"name":"Milwaukee","pop_max":1388000},"geometry":{"type":"Point","coordinates":[-87.922,43.055]}},{"type":"Feature","properties":{"name":"Buffalo","pop_max":1016000},"geometry":{"type":"Point","coordinates":[-78.882,42.882]}},{"type":"Feature","properties":{"name":"Pittsburgh","pop_max":1838000},"geometry":{"type":"Point","coordinates":[-80.002,40.432]}},{"type":"Feature","properties":{"name":"Ciudad Guayana","pop_max":746535},"geometry":{"type":"Point","coordinates":[-62.62,8.37]}},{"type":"Feature","properties":{"name":"Lome","pop_max":1452000},"geometry":{"type":"Point","coordinates":[1.221,6.134]}},{"type":"Feature","properties":{"name":"Tunis","pop_max":2412500},"geometry":{"type":"Point","coordinates":[10.18,36.803]}},{"type":"Feature","properties":{"name":"Kodiak","pop_max":9461},"geometry":{"type":"Point","coordinates":[-152.407,57.79]}},{"type":"Feature","properties":{"name":"Cold Bay","pop_max":200},"geometry":{"type":"Point","coordinates":[-162.715,55.2]}},{"type":"Feature","properties":{"name":"Bethel","pop_max":6228},"geometry":{"type":"Point","coordinates":[-161.756,60.793]}},{"type":"Feature","properties":{"name":"Point Hope","pop_max":461},"geometry":{"type":"Point","coordinates":[-166.808,68.348]}},{"type":"Feature","properties":{"name":"Barrow","pop_max":4336},"geometry":{"type":"Point","coordinates":[-156.789,71.291]}},{"type":"Feature","properties":{"name":"Nome","pop_max":3485},"geometry":{"type":"Point","coordinates":[-165.406,64.506]}},{"type":"Feature","properties":{"name":"Valdez","pop_max":4036},"geometry":{"type":"Point","coordinates":[-146.348,61.136]}},{"type":"Feature","properties":{"name":"Juneau","pop_max":30711},"geometry":{"type":"Point","coordinates":[-134.42,58.314]}},{"type":"Feature","properties":{"name":"Fairbanks","pop_max":56993},"geometry":{"type":"Point","coordinates":[-147.711,64.837]}},{"type":"Feature","properties":{"name":"Prudhoe Bay","pop_max":2500},"geometry":{"type":"Point","coordinates":[-148.669,70.292]}},{"type":"Feature","properties":{"name":"Sevastapol","pop_max":379200},"geometry":{"type":"Point","coordinates":[33.465,44.6]}},{"type":"Feature","properties":{"name":"Abu Dhabi","pop_max":603492},"geometry":{"type":"Point","coordinates":[54.367,24.467]}},{"type":"Feature","properties":{"name":"Ashgabat","pop_max":727700},"geometry":{"type":"Point","coordinates":[58.383,37.95]}},{"type":"Feature","properties":{"name":"Samarqand","pop_max":708000},"geometry":{"type":"Point","coordinates":[66.945,39.67]}},{"type":"Feature","properties":{"name":"Lusaka","pop_max":1328000},"geometry":{"type":"Point","coordinates":[28.281,-15.415]}},{"type":"Feature","properties":{"name":"Harare","pop_max":1572000},"geometry":{"type":"Point","coordinates":[31.043,-17.816]}},{"type":"Feature","properties":{"name":"Bulawayo","pop_max":699385},"geometry":{"type":"Point","coordinates":[28.58,-20.17]}},{"type":"Feature","properties":{"name":"Dili","pop_max":234331},"geometry":{"type":"Point","coordinates":[125.579,-8.559]}},{"type":"Feature","properties":{"name":"Port Vila","pop_max":44040},"geometry":{"type":"Point","coordinates":[168.317,-17.733]}},{"type":"Feature","properties":{"name":"Tegucigalpa","pop_max":946000},"geometry":{"type":"Point","coordinates":[-87.219,14.104]}},{"type":"Feature","properties":{"name":"Georgetown","pop_max":264350},"geometry":{"type":"Point","coordinates":[-58.167,6.802]}},{"type":"Feature","properties":{"name":"Reykjavík","pop_max":166212},"geometry":{"type":"Point","coordinates":[-21.95,64.15]}},{"type":"Feature","properties":{"name":"Port-au-Prince","pop_max":1998000},"geometry":{"type":"Point","coordinates":[-72.338,18.543]}},{"type":"Feature","properties":{"name":"Glasgow","pop_max":1160000},"geometry":{"type":"Point","coordinates":[-4.253,55.876]}},{"type":"Feature","properties":{"name":"Kampala","pop_max":1420000},"geometry":{"type":"Point","coordinates":[32.581,0.319]}},{"type":"Feature","properties":{"name":"Aden","pop_max":1000000},"geometry":{"type":"Point","coordinates":[45.009,12.78]}},{"type":"Feature","properties":{"name":"Paramaribo","pop_max":254169},"geometry":{"type":"Point","coordinates":[-55.167,5.835]}},{"type":"Feature","properties":{"name":"Seville","pop_max":1212045},"geometry":{"type":"Point","coordinates":[-5.98,37.405]}},